{"_id":"GR-Anatolikis Makedonias kai Thrakis-Kavala","name":"Kavala","country":"GR","province":"Anatolikis Makedonias kai Thrakis","population":58790,"latitude":40.93,"longitude":24.4,"elevation":0,"other_names":null,"location":{"type":"Point","coordinates":[24.4,40.93]}}
{"_id":"GR-Anatolikis Makedonias kai Thrakis-Komotini","name":"Komotini","country":"GR","province":"Anatolikis Makedonias kai Thrakis","population":null,"latitude":41.1,"longitude":25.42,"elevation":45,"other_names":null,"location":{"type":"Point","coordinates":[25.42,41.1]}}
{"_id":"GR-Attikis-Athina","name":"Athina","country":"GR","province":"Attikis","population":664046,"latitude":37.97,"longitude":23.72,"elevation":70,"other_names":["Athens"],"location":{"type":"Point","coordinates":[23.72,37.97]}}
{"_id":"GR-Attikis-Peiraias","name":"Peiraias","country":"GR","province":"Attikis","population":163688,"latitude":37.95,"longitude":23.63,"elevation":0,"other_names":["Piraeus","Piräus"],"location":{"type":"Point","coordinates":[23.63,37.95]}}
{"_id":"GR-Attikis-Peristeri","name":"Peristeri","country":"GR","province":"Attikis","population":139981,"latitude":38.02,"longitude":23.68,"elevation":50,"other_names":null,"location":{"type":"Point","coordinates":[23.68,38.02]}}
{"_id":"GR-Attikis-Acharnes","name":"Acharnes","country":"GR","province":"Attikis","population":106943,"latitude":38.08,"longitude":23.73,"elevation":186,"other_names":null,"location":{"type":"Point","coordinates":[23.73,38.08]}}
{"_id":"GR-Dytikis Elladas-Patra","name":"Patra","country":"GR","province":"Dytikis Elladas","population":213984,"latitude":38.25,"longitude":21.73,"elevation":0,"other_names":["Patras"],"location":{"type":"Point","coordinates":[21.73,38.25]}}
{"_id":"GR-Dytikis Makedonias-Kozani","name":"Kozani","country":"GR","province":"Dytikis Makedonias","population":null,"latitude":40.3,"longitude":21.78,"elevation":710,"other_names":null,"location":{"type":"Point","coordinates":[21.78,40.3]}}
{"_id":"GR-Ipeiroy-Ioannina","name":"Ioannina","country":"GR","province":"Ipeiroy","population":112486,"latitude":39.67,"longitude":20.85,"elevation":480,"other_names":null,"location":{"type":"Point","coordinates":[20.85,39.67]}}
{"_id":"GR-Ionion Nison-Kerkyra","name":"Kerkyra","country":"GR","province":"Ionion Nison","population":null,"latitude":39.58,"longitude":19.87,"elevation":0,"other_names":["Corfu","Korfu"],"location":{"type":"Point","coordinates":[19.87,39.58]}}
{"_id":"GR-Kentrikis Makedonias-Thessaloniki","name":"Thessaloniki","country":"GR","province":"Kentrikis Makedonias","population":325182,"latitude":40.65,"longitude":22.9,"elevation":0,"other_names":null,"location":{"type":"Point","coordinates":[22.9,40.65]}}
{"_id":"GR-Kritis-Chania","name":"Chania","country":"GR","province":"Kritis","population":108642,"latitude":35.52,"longitude":24.02,"elevation":0,"other_names":null,"location":{"type":"Point","coordinates":[24.02,35.52]}}
{"_id":"AL-Albania-Durrës","name":"Durrës","country":"AL","province":"Albania","population":113249,"latitude":41.32,"longitude":19.45,"elevation":0,"other_names":null,"location":{"type":"Point","coordinates":[19.45,41.32]}}
{"_id":"GR-Notioy Aigaioy-Ermoupoli","name":"Ermoupoli","country":"GR","province":"Notioy Aigaioy","population":null,"latitude":37.43,"longitude":24.92,"elevation":0,"other_names":null,"location":{"type":"Point","coordinates":[24.92,37.43]}}
{"_id":"GR-Notioy Aigaioy-Rhodes","name":"Rhodes","country":"GR","province":"Notioy Aigaioy","population":115490,"latitude":36.43,"longitude":28.22,"elevation":26,"other_names":["Rhodos"],"location":{"type":"Point","coordinates":[28.22,36.43]}}
{"_id":"GR-Peloponnisos-Tripoli","name":"Tripoli","country":"GR","province":"Peloponnisos","population":null,"latitude":37.52,"longitude":22.38,"elevation":655,"other_names":null,"location":{"type":"Point","coordinates":[22.38,37.52]}}
{"_id":"GR-Kritis-Iraklio","name":"Iraklio","country":"GR","province":"Kritis","population":173993,"latitude":38.05,"longitude":23.77,"elevation":150,"other_names":["Irakleio","Iraklion"],"location":{"type":"Point","coordinates":[23.77,38.05]}}
{"_id":"GR-Stereas Elladas-Lamia","name":"Lamia","country":"GR","province":"Stereas Elladas","population":75315,"latitude":38.9,"longitude":22.43,"elevation":50,"other_names":null,"location":{"type":"Point","coordinates":[22.43,38.9]}}
{"_id":"GR-Stereas Elladas-Chalkida","name":"Chalkida","country":"GR","province":"Stereas Elladas","population":102223,"latitude":38.47,"longitude":23.6,"elevation":0,"other_names":["Chalcis","Chalkis"],"location":{"type":"Point","coordinates":[23.6,38.47]}}
{"_id":"GR-Thessalias-Larissa","name":"Larissa","country":"GR","province":"Thessalias","population":162591,"latitude":39.64,"longitude":22.42,"elevation":67,"other_names":null,"location":{"type":"Point","coordinates":[22.42,39.64]}}
{"_id":"AL-Albania-Tirana","name":"Tirana","country":"AL","province":"Albania","population":418495,"latitude":41.33,"longitude":19.82,"elevation":110,"other_names":["Tirane"],"location":{"type":"Point","coordinates":[19.82,41.33]}}
{"_id":"AL-Albania-Korçë","name":"Korçë","country":"AL","province":"Albania","population":51152,"latitude":40.62,"longitude":20.77,"elevation":850,"other_names":null,"location":{"type":"Point","coordinates":[20.77,40.62]}}
{"_id":"AL-Albania-Shkodër","name":"Shkodër","country":"AL","province":"Albania","population":77075,"latitude":42.07,"longitude":19.5,"elevation":13,"other_names":null,"location":{"type":"Point","coordinates":[19.5,42.07]}}
{"_id":"AL-Albania-Vlorë","name":"Vlorë","country":"AL","province":"Albania","population":79513,"latitude":40.47,"longitude":19.49,"elevation":25,"other_names":null,"location":{"type":"Point","coordinates":[19.49,40.47]}}
{"_id":"GR-Thessalias-Volos","name":"Volos","country":"GR","province":"Thessalias","population":144449,"latitude":39.37,"longitude":22.93,"elevation":0,"other_names":null,"location":{"type":"Point","coordinates":[22.93,39.37]}}
{"_id":"AL-Albania-Elbasan","name":"Elbasan","country":"AL","province":"Albania","population":78703,"latitude":41.1,"longitude":20.07,"elevation":150,"other_names":null,"location":{"type":"Point","coordinates":[20.07,41.1]}}
{"_id":"GR-Boreioy Aigaioy-Mytilini","name":"Mytilini","country":"GR","province":"Boreioy Aigaioy","population":null,"latitude":39.1,"longitude":26.55,"elevation":8,"other_names":["Mytilene"],"location":{"type":"Point","coordinates":[26.55,39.1]}}
{"_id":"GR-Aghion Oros-Karyes","name":"Karyes","country":"GR","province":"Aghion Oros","population":233,"latitude":40.26,"longitude":24.24,"elevation":null,"other_names":null,"location":{"type":"Point","coordinates":[24.24,40.26]}}
{"_id":"MK-Macedonia-Skopje","name":"Skopje","country":"MK","province":"Macedonia","population":514967,"latitude":42,"longitude":21.43,"elevation":240,"other_names":null,"location":{"type":"Point","coordinates":[21.43,42.0]}}
{"_id":"MK-Macedonia-Kumanovo","name":"Kumanovo","country":"MK","province":"Macedonia","population":107745,"latitude":42.14,"longitude":21.72,"elevation":340,"other_names":null,"location":{"type":"Point","coordinates":[21.72,42.14]}}
{"_id":"SRB-Serbia-Beograd","name":"Beograd","country":"SRB","province":"Serbia","population":1639121,"latitude":44.82,"longitude":20.47,"elevation":117,"other_names":["Belgrade"],"location":{"type":"Point","coordinates":[20.47,44.82]}}
{"_id":"SRB-Serbia-Niš","name":"Niš","country":"SRB","province":"Serbia","population":257867,"latitude":43.32,"longitude":21.9,"elevation":195,"other_names":null,"location":{"type":"Point","coordinates":[21.9,43.32]}}
{"_id":"SRB-Serbia-Novi Sad","name":"Novi Sad","country":"SRB","province":"Serbia","population":335701,"latitude":45.25,"longitude":19.85,"elevation":80,"other_names":null,"location":{"type":"Point","coordinates":[19.85,45.25]}}
{"_id":"AND-Andorra-Andorra la Vella","name":"Andorra la Vella","country":"AND","province":"Andorra","population":22256,"latitude":42.5,"longitude":1.5,"elevation":1023,"other_names":null,"location":{"type":"Point","coordinates":[1.5,42.5]}}
{"_id":"KOS-Kosovo-Prishtine","name":"Prishtine","country":"KOS","province":"Kosovo","population":198214,"latitude":42.67,"longitude":21.17,"elevation":652,"other_names":["Pristina"],"location":{"type":"Point","coordinates":[21.17,42.67]}}
{"_id":"MNE-Montenegro-Podgorica","name":"Podgorica","country":"MNE","province":"Montenegro","population":150977,"latitude":42.44,"longitude":19.26,"elevation":48,"other_names":null,"location":{"type":"Point","coordinates":[19.26,42.44]}}
{"_id":"F-Alsace-Strasbourg","name":"Strasbourg","country":"F","province":"Alsace","population":272222,"latitude":48.58,"longitude":7.75,"elevation":132,"other_names":null,"location":{"type":"Point","coordinates":[7.75,48.58]}}
{"_id":"F-Auvergne-Clermont-Ferrand","name":"Clermont-Ferrand","country":"F","province":"Auvergne","population":140957,"latitude":45.78,"longitude":3.08,"elevation":321,"other_names":null,"location":{"type":"Point","coordinates":[3.08,45.78]}}
{"_id":"F-Centre-Orléans","name":"Orléans","country":"F","province":"Centre","population":114185,"latitude":47.9,"longitude":1.91,"elevation":90,"other_names":null,"location":{"type":"Point","coordinates":[1.91,47.9]}}
{"_id":"F-Alsace-Mulhouse","name":"Mulhouse","country":"F","province":"Alsace","population":110351,"latitude":47.75,"longitude":7.34,"elevation":232,"other_names":null,"location":{"type":"Point","coordinates":[7.34,47.75]}}
{"_id":"F-Centre-Tours","name":"Tours","country":"F","province":"Centre","population":134633,"latitude":47.39,"longitude":0.69,"elevation":44,"other_names":null,"location":{"type":"Point","coordinates":[0.69,47.39]}}
{"_id":"F-Champagne-Ardenne-Châlons-en-Champagne","name":"Châlons-en-Champagne","country":"F","province":"Champagne-Ardenne","population":null,"latitude":48.96,"longitude":4.37,"elevation":82,"other_names":["Châlons","Châlons en Champagne"],"location":{"type":"Point","coordinates":[4.37,48.96]}}
{"_id":"F-Corse-Ajaccio","name":"Ajaccio","country":"F","province":"Corse","population":66245,"latitude":41.93,"longitude":8.74,"elevation":0,"other_names":null,"location":{"type":"Point","coordinates":[8.74,41.93]}}
{"_id":"F-Champagne-Ardenne-Reims","name":"Reims","country":"F","province":"Champagne-Ardenne","population":180752,"latitude":49.26,"longitude":4.03,"elevation":80,"other_names":null,"location":{"type":"Point","coordinates":[4.03,49.26]}}
{"_id":"F-Franche-Comté-Besançon","name":"Besançon","country":"F","province":"Franche-Comté","population":115879,"latitude":47.24,"longitude":6.02,"elevation":235,"other_names":null,"location":{"type":"Point","coordinates":[6.02,47.24]}}
{"_id":"F-Haute-Normandie-Rouen","name":"Rouen","country":"F","province":"Haute-Normandie","population":111553,"latitude":49.44,"longitude":1.1,"elevation":2,"other_names":null,"location":{"type":"Point","coordinates":[1.1,49.44]}}
{"_id":"F-Haute-Normandie-Le Havre","name":"Le Havre","country":"F","province":"Haute-Normandie","population":174156,"latitude":49.49,"longitude":0.1,"elevation":0,"other_names":null,"location":{"type":"Point","coordinates":[0.1,49.49]}}
{"_id":"F-Île-de-France-Boulogne-Billancourt","name":"Boulogne-Billancourt","country":"F","province":"Île-de-France","population":116220,"latitude":48.84,"longitude":2.24,"elevation":28,"other_names":null,"location":{"type":"Point","coordinates":[2.24,48.84]}}
{"_id":"F-Île-de-France-Paris","name":"Paris","country":"F","province":"Île-de-France","population":2249975,"latitude":48.86,"longitude":2.35,"elevation":28,"other_names":null,"location":{"type":"Point","coordinates":[2.35,48.86]}}
{"_id":"F-Île-de-France-Argenteuil","name":"Argenteuil","country":"F","province":"Île-de-France","population":104282,"latitude":48.95,"longitude":2.25,"elevation":21,"other_names":null,"location":{"type":"Point","coordinates":[2.25,48.95]}}
{"_id":"F-Île-de-France-Montreuil","name":"Montreuil","country":"F","province":"Île-de-France","population":103068,"latitude":48.86,"longitude":2.44,"elevation":52,"other_names":null,"location":{"type":"Point","coordinates":[2.44,48.86]}}
{"_id":"F-Languedoc-Roussillon-Montpellier","name":"Montpellier","country":"F","province":"Languedoc-Roussillon","population":264538,"latitude":43.61,"longitude":3.88,"elevation":7,"other_names":null,"location":{"type":"Point","coordinates":[3.88,43.61]}}
{"_id":"F-Limousin-Limoges","name":"Limoges","country":"F","province":"Limousin","population":137758,"latitude":45.84,"longitude":1.26,"elevation":209,"other_names":null,"location":{"type":"Point","coordinates":[1.26,45.84]}}
{"_id":"F-Languedoc-Roussillon-Perpignan","name":"Perpignan","country":"F","province":"Languedoc-Roussillon","population":118238,"latitude":42.7,"longitude":2.9,"elevation":8,"other_names":null,"location":{"type":"Point","coordinates":[2.9,42.7]}}
{"_id":"F-Bourgogne-Dijon","name":"Dijon","country":"F","province":"Bourgogne","population":151672,"latitude":47.29,"longitude":5.04,"elevation":220,"other_names":null,"location":{"type":"Point","coordinates":[5.04,47.29]}}
{"_id":"F-Languedoc-Roussillon-Nîmes","name":"Nîmes","country":"F","province":"Languedoc-Roussillon","population":144940,"latitude":43.84,"longitude":4.36,"elevation":21,"other_names":null,"location":{"type":"Point","coordinates":[4.36,43.84]}}
{"_id":"F-Lorraine-Metz","name":"Metz","country":"F","province":"Lorraine","population":119962,"latitude":49.12,"longitude":6.18,"elevation":162,"other_names":null,"location":{"type":"Point","coordinates":[6.18,49.12]}}
{"_id":"F-Lorraine-Nancy","name":"Nancy","country":"F","province":"Lorraine","population":105382,"latitude":48.69,"longitude":6.18,"elevation":188,"other_names":null,"location":{"type":"Point","coordinates":[6.18,48.69]}}
{"_id":"F-Aquitaine-Bordeaux","name":"Bordeaux","country":"F","province":"Aquitaine","population":239399,"latitude":44.84,"longitude":-0.58,"elevation":1,"other_names":null,"location":{"type":"Point","coordinates":[-0.58,44.84]}}
{"_id":"F-Midi-Pyrénées-Toulouse","name":"Toulouse","country":"F","province":"Midi-Pyrénées","population":447340,"latitude":43.6,"longitude":1.44,"elevation":115,"other_names":null,"location":{"type":"Point","coordinates":[1.44,43.6]}}
{"_id":"F-Bretagne-Rennes","name":"Rennes","country":"F","province":"Bretagne","population":208033,"latitude":48.11,"longitude":-1.68,"elevation":20,"other_names":null,"location":{"type":"Point","coordinates":[-1.68,48.11]}}
{"_id":"F-Bretagne-Brest","name":"Brest","country":"F","province":"Bretagne","population":140547,"latitude":48.39,"longitude":-4.49,"elevation":0,"other_names":null,"location":{"type":"Point","coordinates":[-4.49,48.39]}}
{"_id":"F-Nord-Pas-de-Calais-Lille","name":"Lille","country":"F","province":"Nord-Pas-de-Calais","population":227533,"latitude":50.63,"longitude":3.06,"elevation":17,"other_names":null,"location":{"type":"Point","coordinates":[3.06,50.63]}}
{"_id":"F-Pays de la Loire-Nantes","name":"Nantes","country":"F","province":"Pays de la Loire","population":287845,"latitude":47.22,"longitude":-1.55,"elevation":2,"other_names":null,"location":{"type":"Point","coordinates":[-1.55,47.22]}}
{"_id":"F-Basse Normandie-Caen","name":"Caen","country":"F","province":"Basse Normandie","population":108793,"latitude":49.18,"longitude":-0.37,"elevation":2,"other_names":null,"location":{"type":"Point","coordinates":[-0.37,49.18]}}
{"_id":"F-Pays de la Loire-Angers","name":"Angers","country":"F","province":"Pays de la Loire","population":148803,"latitude":47.47,"longitude":-0.55,"elevation":12,"other_names":null,"location":{"type":"Point","coordinates":[-0.55,47.47]}}
{"_id":"F-Picardie-Amiens","name":"Amiens","country":"F","province":"Picardie","population":133327,"latitude":49.89,"longitude":2.3,"elevation":14,"other_names":null,"location":{"type":"Point","coordinates":[2.3,49.89]}}
{"_id":"F-Pays de la Loire-Le Mans","name":"Le Mans","country":"F","province":"Pays de la Loire","population":143240,"latitude":48.01,"longitude":0.2,"elevation":38,"other_names":null,"location":{"type":"Point","coordinates":[0.2,48.01]}}
{"_id":"F-Poitou Charentes-Poitiers","name":"Poitiers","country":"F","province":"Poitou Charentes","population":87646,"latitude":46.58,"longitude":0.34,"elevation":65,"other_names":null,"location":{"type":"Point","coordinates":[0.34,46.58]}}
{"_id":"F-Provence-Alpes-Côte d'Azur-Marseille","name":"Marseille","country":"F","province":"Provence-Alpes-Côte d'Azur","population":850636,"latitude":43.3,"longitude":5.37,"elevation":0,"other_names":null,"location":{"type":"Point","coordinates":[5.37,43.3]}}
{"_id":"F-Provence-Alpes-Côte d'Azur-Nice","name":"Nice","country":"F","province":"Provence-Alpes-Côte d'Azur","population":344064,"latitude":43.7,"longitude":7.27,"elevation":0,"other_names":null,"location":{"type":"Point","coordinates":[7.27,43.7]}}
{"_id":"F-Provence-Alpes-Côte d'Azur-Toulon","name":"Toulon","country":"F","province":"Provence-Alpes-Côte d'Azur","population":163974,"latitude":43.13,"longitude":5.92,"elevation":0,"other_names":null,"location":{"type":"Point","coordinates":[5.92,43.13]}}
{"_id":"F-Provence-Alpes-Côte d'Azur-Aix-en-Provence","name":"Aix-en-Provence","country":"F","province":"Provence-Alpes-Côte d'Azur","population":140684,"latitude":43.53,"longitude":5.45,"elevation":73,"other_names":null,"location":{"type":"Point","coordinates":[5.45,43.53]}}
{"_id":"F-Rhône-Alpes-Lyon","name":"Lyon","country":"F","province":"Rhône-Alpes","population":491268,"latitude":45.76,"longitude":4.84,"elevation":162,"other_names":null,"location":{"type":"Point","coordinates":[4.84,45.76]}}
{"_id":"F-Rhône-Alpes-Grenoble","name":"Grenoble","country":"F","province":"Rhône-Alpes","population":157424,"latitude":45.2,"longitude":5.72,"elevation":212,"other_names":null,"location":{"type":"Point","coordinates":[5.72,45.2]}}
{"_id":"F-Rhône-Alpes-Saint-Étienne","name":"Saint-Étienne","country":"F","province":"Rhône-Alpes","population":170049,"latitude":45.43,"longitude":4.39,"elevation":422,"other_names":null,"location":{"type":"Point","coordinates":[4.39,45.43]}}
{"_id":"E-Andalucía-Almería","name":"Almería","country":"E","province":"Andalucía","population":189680,"latitude":36.84,"longitude":-2.47,"elevation":27,"other_names":null,"location":{"type":"Point","coordinates":[-2.47,36.84]}}
{"_id":"F-Rhône-Alpes-Villeurbanne","name":"Villeurbanne","country":"F","province":"Rhône-Alpes","population":145034,"latitude":45.77,"longitude":4.88,"elevation":165,"other_names":null,"location":{"type":"Point","coordinates":[4.88,45.77]}}
{"_id":"E-Andalucía-Sevilla","name":"Sevilla","country":"E","province":"Andalucía","population":698042,"latitude":37.38,"longitude":-5.99,"elevation":7,"other_names":["Seville"],"location":{"type":"Point","coordinates":[-5.99,37.38]}}
{"_id":"E-Andalucía-Cádiz","name":"Cádiz","country":"E","province":"Andalucía","population":124014,"latitude":36.53,"longitude":-6.28,"elevation":11,"other_names":null,"location":{"type":"Point","coordinates":[-6.28,36.53]}}
{"_id":"E-Andalucía-Córdoba","name":"Córdoba","country":"E","province":"Andalucía","population":328326,"latitude":37.88,"longitude":-4.77,"elevation":120,"other_names":null,"location":{"type":"Point","coordinates":[-4.77,37.88]}}
{"_id":"E-Andalucía-Huelva","name":"Huelva","country":"E","province":"Andalucía","population":147808,"latitude":37.25,"longitude":-6.95,"elevation":54,"other_names":null,"location":{"type":"Point","coordinates":[-6.95,37.25]}}
{"_id":"E-Andalucía-Granada","name":"Granada","country":"E","province":"Andalucía","population":241003,"latitude":37.18,"longitude":-3.6,"elevation":738,"other_names":null,"location":{"type":"Point","coordinates":[-3.6,37.18]}}
{"_id":"E-Andalucía-Málaga","name":"Málaga","country":"E","province":"Andalucía","population":561435,"latitude":36.72,"longitude":-4.42,"elevation":11,"other_names":null,"location":{"type":"Point","coordinates":[-4.42,36.72]}}
{"_id":"E-Andalucía-Jerez de la Frontera","name":"Jerez de la Frontera","country":"E","province":"Andalucía","population":211784,"latitude":36.7,"longitude":-6.12,"elevation":56,"other_names":["Jerez"],"location":{"type":"Point","coordinates":[-6.12,36.7]}}
{"_id":"E-Andalucía-Algeciras","name":"Algeciras","country":"E","province":"Andalucía","population":117695,"latitude":36.13,"longitude":-5.45,"elevation":20,"other_names":null,"location":{"type":"Point","coordinates":[-5.45,36.13]}}
{"_id":"E-Andalucía-Jaén","name":"Jaén","country":"E","province":"Andalucía","population":116469,"latitude":37.77,"longitude":-3.77,"elevation":573,"other_names":null,"location":{"type":"Point","coordinates":[-3.77,37.77]}}
{"_id":"E-Andalucía-Marbella","name":"Marbella","country":"E","province":"Andalucía","population":135124,"latitude":36.52,"longitude":-4.88,"elevation":27,"other_names":null,"location":{"type":"Point","coordinates":[-4.88,36.52]}}
{"_id":"E-Andalucía-Dos Hermanas","name":"Dos Hermanas","country":"E","province":"Andalucía","population":128433,"latitude":37.28,"longitude":-5.92,"elevation":42,"other_names":null,"location":{"type":"Point","coordinates":[-5.92,37.28]}}
{"_id":"E-Aragón-Zaragoza","name":"Zaragoza","country":"E","province":"Aragón","population":678115,"latitude":41.65,"longitude":-0.88,"elevation":243,"other_names":null,"location":{"type":"Point","coordinates":[-0.88,41.65]}}
{"_id":"E-Asturias-Gijón","name":"Gijón","country":"E","province":"Asturias","population":276969,"latitude":43.53,"longitude":-5.7,"elevation":3,"other_names":null,"location":{"type":"Point","coordinates":[-5.7,43.53]}}
{"_id":"E-Asturias-Oviedo","name":"Oviedo","country":"E","province":"Asturias","population":225005,"latitude":43.36,"longitude":-5.84,"elevation":232,"other_names":null,"location":{"type":"Point","coordinates":[-5.84,43.36]}}
{"_id":"E-Illes Balears-Palma de Mallorca","name":"Palma de Mallorca","country":"E","province":"Illes Balears","population":402044,"latitude":39.57,"longitude":2.65,"elevation":13,"other_names":["Palma"],"location":{"type":"Point","coordinates":[2.65,39.57]}}
{"_id":"E-País Vasco-Vitoria-Gasteiz","name":"Vitoria-Gasteiz","country":"E","province":"País Vasco","population":240753,"latitude":42.85,"longitude":-2.68,"elevation":525,"other_names":null,"location":{"type":"Point","coordinates":[-2.68,42.85]}}
{"_id":"E-Canarias-Santa Cruz de Tenerife","name":"Santa Cruz de Tenerife","country":"E","province":"Canarias","population":204476,"latitude":28.47,"longitude":-16.25,"elevation":4,"other_names":null,"location":{"type":"Point","coordinates":[-16.25,28.47]}}
{"_id":"E-País Vasco-Bilbao","name":"Bilbao","country":"E","province":"País Vasco","population":351356,"latitude":43.26,"longitude":-2.92,"elevation":19,"other_names":null,"location":{"type":"Point","coordinates":[-2.92,43.26]}}
{"_id":"E-País Vasco-Donostia","name":"Donostia","country":"E","province":"País Vasco","population":185512,"latitude":43.32,"longitude":-1.99,"elevation":6,"other_names":["Donostia-San Sebastián","San Sebastián"],"location":{"type":"Point","coordinates":[-1.99,43.32]}}
{"_id":"E-Canarias-Las Palmas de Gran Canaria","name":"Las Palmas de Gran Canaria","country":"E","province":"Canarias","population":381271,"latitude":28.15,"longitude":-15.42,"elevation":8,"other_names":["Las Palmas"],"location":{"type":"Point","coordinates":[-15.42,28.15]}}
{"_id":"E-Canarias-San Cristóbal de La Laguna","name":"San Cristóbal de La Laguna","country":"E","province":"Canarias","population":152025,"latitude":28.48,"longitude":-16.3,"elevation":543,"other_names":["La Laguna"],"location":{"type":"Point","coordinates":[-16.3,28.48]}}
{"_id":"E-País Vasco-Barakaldo","name":"Barakaldo","country":"E","province":"País Vasco","population":100064,"latitude":43.3,"longitude":-2.99,"elevation":39,"other_names":null,"location":{"type":"Point","coordinates":[-2.99,43.3]}}
{"_id":"E-Canarias-Telde","name":"Telde","country":"E","province":"Canarias","population":101080,"latitude":27.98,"longitude":-15.42,"elevation":130,"other_names":null,"location":{"type":"Point","coordinates":[-15.42,27.98]}}
{"_id":"E-Castilla-La Mancha-Albacete","name":"Albacete","country":"E","province":"Castilla-La Mancha","population":171999,"latitude":39,"longitude":-1.86,"elevation":686,"other_names":null,"location":{"type":"Point","coordinates":[-1.86,39.0]}}
{"_id":"E-Cataluña-Barcelona","name":"Barcelona","country":"E","province":"Cataluña","population":1611013,"latitude":41.38,"longitude":2.18,"elevation":12,"other_names":null,"location":{"type":"Point","coordinates":[2.18,41.38]}}
{"_id":"E-Cataluña-Lleida","name":"Lleida","country":"E","province":"Cataluña","population":137283,"latitude":41.62,"longitude":0.63,"elevation":155,"other_names":null,"location":{"type":"Point","coordinates":[0.63,41.62]}}
{"_id":"E-Castilla-La Mancha-Toledo","name":"Toledo","country":"E","province":"Castilla-La Mancha","population":null,"latitude":39.86,"longitude":-4.02,"elevation":529,"other_names":null,"location":{"type":"Point","coordinates":[-4.02,39.86]}}
{"_id":"E-Cataluña-Reus","name":"Reus","country":"E","province":"Cataluña","population":106849,"latitude":41.15,"longitude":1.12,"elevation":134,"other_names":null,"location":{"type":"Point","coordinates":[1.12,41.15]}}
{"_id":"E-Cataluña-Tarragona","name":"Tarragona","country":"E","province":"Cataluña","population":133223,"latitude":41.12,"longitude":1.25,"elevation":68,"other_names":null,"location":{"type":"Point","coordinates":[1.25,41.12]}}
{"_id":"E-Cataluña-Hospitalet de Llobregat","name":"Hospitalet de Llobregat","country":"E","province":"Cataluña","population":256509,"latitude":41.36,"longitude":2.1,"elevation":8,"other_names":["L'Hospitalet de Llobregat"],"location":{"type":"Point","coordinates":[2.1,41.36]}}
{"_id":"E-Cataluña-Badalona","name":"Badalona","country":"E","province":"Cataluña","population":219241,"latitude":41.45,"longitude":2.25,"elevation":12,"other_names":null,"location":{"type":"Point","coordinates":[2.25,41.45]}}
{"_id":"E-Cataluña-Sabadell","name":"Sabadell","country":"E","province":"Cataluña","population":206949,"latitude":41.55,"longitude":2.11,"elevation":190,"other_names":null,"location":{"type":"Point","coordinates":[2.11,41.55]}}
{"_id":"E-Cataluña-Terrassa","name":"Terrassa","country":"E","province":"Cataluña","population":214406,"latitude":41.56,"longitude":2.01,"elevation":286,"other_names":null,"location":{"type":"Point","coordinates":[2.01,41.56]}}
{"_id":"E-Cataluña-Santa Coloma de Gramenet","name":"Santa Coloma de Gramenet","country":"E","province":"Cataluña","population":119391,"latitude":41.47,"longitude":2.22,"elevation":56,"other_names":null,"location":{"type":"Point","coordinates":[2.22,41.47]}}
{"_id":"E-Extremadura-Badajoz","name":"Badajoz","country":"E","province":"Extremadura","population":151214,"latitude":38.88,"longitude":-6.97,"elevation":185,"other_names":null,"location":{"type":"Point","coordinates":[-6.97,38.88]}}
{"_id":"E-Cataluña-Mataró","name":"Mataró","country":"E","province":"Cataluña","population":123367,"latitude":41.53,"longitude":2.45,"elevation":28,"other_names":null,"location":{"type":"Point","coordinates":[2.45,41.53]}}
{"_id":"E-Cantabria-Santander","name":"Santander","country":"E","province":"Cantabria","population":178095,"latitude":43.46,"longitude":-3.8,"elevation":15,"other_names":null,"location":{"type":"Point","coordinates":[-3.8,43.46]}}
{"_id":"E-Castilla y León-Burgos","name":"Burgos","country":"E","province":"Castilla y León","population":178864,"latitude":42.35,"longitude":-3.71,"elevation":859,"other_names":null,"location":{"type":"Point","coordinates":[-3.71,42.35]}}
{"_id":"E-Castilla y León-León","name":"León","country":"E","province":"Castilla y León","population":131411,"latitude":42.61,"longitude":-5.57,"elevation":837,"other_names":null,"location":{"type":"Point","coordinates":[-5.57,42.61]}}
{"_id":"E-Castilla y León-Valladolid","name":"Valladolid","country":"E","province":"Castilla y León","population":311682,"latitude":41.63,"longitude":-4.72,"elevation":698,"other_names":null,"location":{"type":"Point","coordinates":[-4.72,41.63]}}
{"_id":"E-Castilla y León-Salamanca","name":"Salamanca","country":"E","province":"Castilla y León","population":151658,"latitude":40.97,"longitude":-5.67,"elevation":802,"other_names":null,"location":{"type":"Point","coordinates":[-5.67,40.97]}}
{"_id":"E-Galicia-Vigo","name":"Vigo","country":"E","province":"Galicia","population":295623,"latitude":42.23,"longitude":-8.71,"elevation":0,"other_names":null,"location":{"type":"Point","coordinates":[-8.71,42.23]}}
{"_id":"E-Extremadura-Merida","name":"Merida","country":"E","province":"Extremadura","population":null,"latitude":38.9,"longitude":-6.33,"elevation":217,"other_names":null,"location":{"type":"Point","coordinates":[-6.33,38.9]}}
{"_id":"E-Galicia-Ourense","name":"Ourense","country":"E","province":"Galicia","population":107314,"latitude":42.34,"longitude":-7.86,"elevation":132,"other_names":null,"location":{"type":"Point","coordinates":[-7.86,42.34]}}
{"_id":"E-Galicia-Santiago de Compostela","name":"Santiago de Compostela","country":"E","province":"Galicia","population":null,"latitude":42.88,"longitude":-8.54,"elevation":260,"other_names":null,"location":{"type":"Point","coordinates":[-8.54,42.88]}}
{"_id":"E-Madrid-Madrid","name":"Madrid","country":"E","province":"Madrid","population":3198645,"latitude":40.38,"longitude":-3.72,"elevation":667,"other_names":null,"location":{"type":"Point","coordinates":[-3.72,40.38]}}
{"_id":"E-Madrid-Móstoles","name":"Móstoles","country":"E","province":"Madrid","population":203493,"latitude":40.33,"longitude":-3.87,"elevation":620,"other_names":null,"location":{"type":"Point","coordinates":[-3.87,40.33]}}
{"_id":"E-Madrid-Alcalá de Henares","name":"Alcalá de Henares","country":"E","province":"Madrid","population":200505,"latitude":40.47,"longitude":-3.37,"elevation":588,"other_names":null,"location":{"type":"Point","coordinates":[-3.37,40.47]}}
{"_id":"E-Galicia-A Coruña","name":"A Coruña","country":"E","province":"Galicia","population":245053,"latitude":43.37,"longitude":-8.41,"elevation":0,"other_names":["La Coruna"],"location":{"type":"Point","coordinates":[-8.41,43.37]}}
{"_id":"E-Madrid-Leganés","name":"Leganés","country":"E","province":"Madrid","population":185758,"latitude":40.33,"longitude":-3.76,"elevation":666.22,"other_names":null,"location":{"type":"Point","coordinates":[-3.76,40.33]}}
{"_id":"E-Madrid-Getafe","name":"Getafe","country":"E","province":"Madrid","population":168642,"latitude":40.3,"longitude":-3.73,"elevation":622,"other_names":null,"location":{"type":"Point","coordinates":[-3.73,40.3]}}
{"_id":"E-Madrid-Fuenlabrada","name":"Fuenlabrada","country":"E","province":"Madrid","population":196986,"latitude":40.28,"longitude":-3.8,"elevation":664,"other_names":null,"location":{"type":"Point","coordinates":[-3.8,40.28]}}
{"_id":"E-Madrid-Alcorcón","name":"Alcorcón","country":"E","province":"Madrid","population":167217,"latitude":40.35,"longitude":-3.83,"elevation":695,"other_names":null,"location":{"type":"Point","coordinates":[-3.83,40.35]}}
{"_id":"E-Madrid-Torrejón de Ardoz","name":"Torrejón de Ardoz","country":"E","province":"Madrid","population":123213,"latitude":40.46,"longitude":-3.5,"elevation":568,"other_names":null,"location":{"type":"Point","coordinates":[-3.5,40.46]}}
{"_id":"E-Madrid-Parla","name":"Parla","country":"E","province":"Madrid","population":122045,"latitude":40.24,"longitude":-3.77,"elevation":648.5,"other_names":null,"location":{"type":"Point","coordinates":[-3.77,40.24]}}
{"_id":"E-Murcia-Murcia","name":"Murcia","country":"E","province":"Murcia","population":437667,"latitude":37.99,"longitude":-1.13,"elevation":43,"other_names":null,"location":{"type":"Point","coordinates":[-1.13,37.99]}}
{"_id":"E-Madrid-Alcobendas","name":"Alcobendas","country":"E","province":"Madrid","population":110351,"latitude":40.53,"longitude":-3.63,"elevation":700,"other_names":null,"location":{"type":"Point","coordinates":[-3.63,40.53]}}
{"_id":"E-Murcia-Cartagena","name":"Cartagena","country":"E","province":"Murcia","population":215757,"latitude":37.6,"longitude":-0.98,"elevation":10,"other_names":null,"location":{"type":"Point","coordinates":[-0.98,37.6]}}
{"_id":"E-La Rioja-Logroño","name":"Logroño","country":"E","province":"La Rioja","population":152698,"latitude":42.47,"longitude":-2.45,"elevation":384,"other_names":null,"location":{"type":"Point","coordinates":[-2.45,42.47]}}
{"_id":"E-Navarra-Pamplona","name":"Pamplona","country":"E","province":"Navarra","population":195943,"latitude":42.82,"longitude":-1.65,"elevation":446,"other_names":["Iruña"],"location":{"type":"Point","coordinates":[-1.65,42.82]}}
{"_id":"E-Valenciana-Valencia","name":"Valencia","country":"E","province":"Valenciana","population":792054,"latitude":39.47,"longitude":-0.38,"elevation":15,"other_names":null,"location":{"type":"Point","coordinates":[-0.38,39.47]}}
{"_id":"E-Valenciana-Alicante","name":"Alicante","country":"E","province":"Valenciana","population":329325,"latitude":38.35,"longitude":-0.48,"elevation":3,"other_names":["Alacant"],"location":{"type":"Point","coordinates":[-0.48,38.35]}}
{"_id":"E-Valenciana-Castellón de la Plana","name":"Castellón de la Plana","country":"E","province":"Valenciana","population":176298,"latitude":39.98,"longitude":-0.03,"elevation":30,"other_names":["Castelló de la Plana"],"location":{"type":"Point","coordinates":[-0.03,39.98]}}
{"_id":"E-Valenciana-Elche","name":"Elche","country":"E","province":"Valenciana","population":227417,"latitude":38.27,"longitude":-0.7,"elevation":86,"other_names":["Elx"],"location":{"type":"Point","coordinates":[-0.7,38.27]}}
{"_id":"A-Burgenland-Eisenstadt","name":"Eisenstadt","country":"A","province":"Burgenland","population":13485,"latitude":47.85,"longitude":16.52,"elevation":182,"other_names":null,"location":{"type":"Point","coordinates":[16.52,47.85]}}
{"_id":"A-Kärnten-Klagenfurt","name":"Klagenfurt","country":"A","province":"Kärnten","population":96531,"latitude":46.62,"longitude":14.3,"elevation":446,"other_names":null,"location":{"type":"Point","coordinates":[14.3,46.62]}}
{"_id":"A-Kärnten-Villach","name":"Villach","country":"A","province":"Kärnten","population":59942,"latitude":46.62,"longitude":13.85,"elevation":501,"other_names":null,"location":{"type":"Point","coordinates":[13.85,46.62]}}
{"_id":"A-Wien-Wien","name":"Wien","country":"A","province":"Wien","population":1761738,"latitude":48.2,"longitude":16.37,"elevation":151,"other_names":["Vienna"],"location":{"type":"Point","coordinates":[16.37,48.2]}}
{"_id":"A-Vorarlberg-Bregenz","name":"Bregenz","country":"A","province":"Vorarlberg","population":null,"latitude":47.51,"longitude":9.75,"elevation":427,"other_names":null,"location":{"type":"Point","coordinates":[9.75,47.51]}}
{"_id":"A-Oberösterreich-Linz","name":"Linz","country":"A","province":"Oberösterreich","population":193511,"latitude":48.3,"longitude":14.28,"elevation":266,"other_names":null,"location":{"type":"Point","coordinates":[14.28,48.3]}}
{"_id":"A-Steiermark-Graz","name":"Graz","country":"A","province":"Steiermark","population":269211,"latitude":47.07,"longitude":15.43,"elevation":353,"other_names":null,"location":{"type":"Point","coordinates":[15.43,47.07]}}
{"_id":"A-Tirol-Innsbruck","name":"Innsbruck","country":"A","province":"Tirol","population":124386,"latitude":47.27,"longitude":11.38,"elevation":574,"other_names":null,"location":{"type":"Point","coordinates":[11.38,47.27]}}
{"_id":"A-Salzburg-Salzburg","name":"Salzburg","country":"A","province":"Salzburg","population":146676,"latitude":47.8,"longitude":13.03,"elevation":424,"other_names":null,"location":{"type":"Point","coordinates":[13.03,47.8]}}
{"_id":"A-Oberösterreich-Wels","name":"Wels","country":"A","province":"Oberösterreich","population":59239,"latitude":48.15,"longitude":14.02,"elevation":317,"other_names":null,"location":{"type":"Point","coordinates":[14.02,48.15]}}
{"_id":"A-Niederösterreich-St. Pölten","name":"St. Pölten","country":"A","province":"Niederösterreich","population":52100,"latitude":48.2,"longitude":15.62,"elevation":267,"other_names":null,"location":{"type":"Point","coordinates":[15.62,48.2]}}
{"_id":"CZ-Jihočeský-České Budějovice","name":"České Budějovice","country":"CZ","province":"Jihočeský","population":95589,"latitude":48.97,"longitude":14.47,"elevation":381,"other_names":null,"location":{"type":"Point","coordinates":[14.47,48.97]}}
{"_id":"CZ-Praha-Praha","name":"Praha","country":"CZ","province":"Praha","population":1289556,"latitude":50.08,"longitude":14.42,"elevation":399,"other_names":["Prague"],"location":{"type":"Point","coordinates":[14.42,50.08]}}
{"_id":"CZ-Karlovarský-Karlovy Vary","name":"Karlovy Vary","country":"CZ","province":"Karlovarský","population":53310,"latitude":50.23,"longitude":12.87,"elevation":447,"other_names":null,"location":{"type":"Point","coordinates":[12.87,50.23]}}
{"_id":"CZ-Vysočina-Jihlava","name":"Jihlava","country":"CZ","province":"Vysočina","population":51162,"latitude":49.4,"longitude":15.59,"elevation":525,"other_names":null,"location":{"type":"Point","coordinates":[15.59,49.4]}}
{"_id":"CZ-Jihomoravský-Brno","name":"Brno","country":"CZ","province":"Jihomoravský","population":404820,"latitude":49.2,"longitude":16.62,"elevation":237,"other_names":null,"location":{"type":"Point","coordinates":[16.62,49.2]}}
{"_id":"CZ-Královéhradecký-Hradec Králové","name":"Hradec Králové","country":"CZ","province":"Královéhradecký","population":95594,"latitude":50.21,"longitude":15.83,"elevation":235,"other_names":null,"location":{"type":"Point","coordinates":[15.83,50.21]}}
{"_id":"CZ-Liberecký-Liberec","name":"Liberec","country":"CZ","province":"Liberecký","population":104973,"latitude":50.72,"longitude":15.07,"elevation":374,"other_names":null,"location":{"type":"Point","coordinates":[15.07,50.72]}}
{"_id":"CZ-Moravskoslezský-Ostrava","name":"Ostrava","country":"CZ","province":"Moravskoslezský","population":311508,"latitude":49.84,"longitude":18.29,"elevation":335,"other_names":null,"location":{"type":"Point","coordinates":[18.29,49.84]}}
{"_id":"CZ-Olomoucký-Olomouc","name":"Olomouc","country":"CZ","province":"Olomoucký","population":101954,"latitude":49.6,"longitude":17.25,"elevation":219,"other_names":null,"location":{"type":"Point","coordinates":[17.25,49.6]}}
{"_id":"CZ-Pardubický-Pardubice","name":"Pardubice","country":"CZ","province":"Pardubický","population":90844,"latitude":50.04,"longitude":15.78,"elevation":237,"other_names":null,"location":{"type":"Point","coordinates":[15.78,50.04]}}
{"_id":"CZ-Ústecký-Ústí nad Labem","name":"Ústí nad Labem","country":"CZ","province":"Ústecký","population":98596,"latitude":50.66,"longitude":14.04,"elevation":218,"other_names":null,"location":{"type":"Point","coordinates":[14.04,50.66]}}
{"_id":"CZ-Plzeňský-Plzeň","name":"Plzeň","country":"CZ","province":"Plzeňský","population":171346,"latitude":49.75,"longitude":13.38,"elevation":308,"other_names":null,"location":{"type":"Point","coordinates":[13.38,49.75]}}
{"_id":"D-Baden-Württemberg-Karlsruhe","name":"Karlsruhe","country":"D","province":"Baden-Württemberg","population":289173,"latitude":49.01,"longitude":8.4,"elevation":115,"other_names":null,"location":{"type":"Point","coordinates":[8.4,49.01]}}
{"_id":"CZ-Zlínský-Zlín","name":"Zlín","country":"CZ","province":"Zlínský","population":77137,"latitude":49.23,"longitude":17.67,"elevation":230,"other_names":null,"location":{"type":"Point","coordinates":[17.67,49.23]}}
{"_id":"D-Baden-Württemberg-Freiburg","name":"Freiburg","country":"D","province":"Baden-Württemberg","population":209628,"latitude":47.98,"longitude":7.85,"elevation":278,"other_names":["Freiburg im Breisgau"],"location":{"type":"Point","coordinates":[7.85,47.98]}}
{"_id":"D-Baden-Württemberg-Mannheim","name":"Mannheim","country":"D","province":"Baden-Württemberg","population":290117,"latitude":49.49,"longitude":8.47,"elevation":97,"other_names":null,"location":{"type":"Point","coordinates":[8.47,49.49]}}
{"_id":"D-Baden-Württemberg-Heidelberg","name":"Heidelberg","country":"D","province":"Baden-Württemberg","population":146751,"latitude":49.42,"longitude":8.72,"elevation":114,"other_names":null,"location":{"type":"Point","coordinates":[8.72,49.42]}}
{"_id":"D-Baden-Württemberg-Stuttgart","name":"Stuttgart","country":"D","province":"Baden-Württemberg","population":585890,"latitude":48.78,"longitude":9.18,"elevation":247,"other_names":null,"location":{"type":"Point","coordinates":[9.18,48.78]}}
{"_id":"D-Baden-Württemberg-Heilbronn","name":"Heilbronn","country":"D","province":"Baden-Württemberg","population":116059,"latitude":49.15,"longitude":9.22,"elevation":157,"other_names":null,"location":{"type":"Point","coordinates":[9.22,49.15]}}
{"_id":"D-Baden-Württemberg-Pforzheim","name":"Pforzheim","country":"D","province":"Baden-Württemberg","population":114411,"latitude":48.9,"longitude":8.72,"elevation":261,"other_names":null,"location":{"type":"Point","coordinates":[8.72,48.9]}}
{"_id":"D-Bayern-München","name":"München","country":"D","province":"Bayern","population":1348335,"latitude":48.13,"longitude":11.57,"elevation":519,"other_names":["Munich"],"location":{"type":"Point","coordinates":[11.57,48.13]}}
{"_id":"D-Baden-Württemberg-Reutlingen","name":"Reutlingen","country":"D","province":"Baden-Württemberg","population":109799,"latitude":48.48,"longitude":9.22,"elevation":382,"other_names":null,"location":{"type":"Point","coordinates":[9.22,48.48]}}
{"_id":"D-Baden-Württemberg-Ulm","name":"Ulm","country":"D","province":"Baden-Württemberg","population":116761,"latitude":48.4,"longitude":9.98,"elevation":478,"other_names":null,"location":{"type":"Point","coordinates":[9.98,48.4]}}
{"_id":"D-Bayern-Nürnberg","name":"Nürnberg","country":"D","province":"Bayern","population":486314,"latitude":49.45,"longitude":11.08,"elevation":309,"other_names":["Nuremberg"],"location":{"type":"Point","coordinates":[11.08,49.45]}}
{"_id":"D-Bayern-Augsburg","name":"Augsburg","country":"D","province":"Bayern","population":267767,"latitude":48.37,"longitude":10.9,"elevation":494,"other_names":null,"location":{"type":"Point","coordinates":[10.9,48.37]}}
{"_id":"D-Bayern-Würzburg","name":"Würzburg","country":"D","province":"Bayern","population":124297,"latitude":49.78,"longitude":9.93,"elevation":177,"other_names":null,"location":{"type":"Point","coordinates":[9.93,49.78]}}
{"_id":"D-Bayern-Fürth","name":"Fürth","country":"D","province":"Bayern","population":115613,"latitude":49.47,"longitude":11,"elevation":294,"other_names":null,"location":{"type":"Point","coordinates":[11.0,49.47]}}
{"_id":"D-Bayern-Regensburg","name":"Regensburg","country":"D","province":"Bayern","population":135403,"latitude":49.02,"longitude":12.08,"elevation":337,"other_names":null,"location":{"type":"Point","coordinates":[12.08,49.02]}}
{"_id":"D-Berlin-Berlin","name":"Berlin","country":"D","province":"Berlin","population":3292365,"latitude":52.52,"longitude":13.38,"elevation":34,"other_names":null,"location":{"type":"Point","coordinates":[13.38,52.52]}}
{"_id":"D-Brandenburg-Potsdam","name":"Potsdam","country":"D","province":"Brandenburg","population":156021,"latitude":52.4,"longitude":13.07,"elevation":32,"other_names":null,"location":{"type":"Point","coordinates":[13.07,52.4]}}
{"_id":"D-Bayern-Erlangen","name":"Erlangen","country":"D","province":"Bayern","population":103719,"latitude":49.58,"longitude":11.02,"elevation":279,"other_names":null,"location":{"type":"Point","coordinates":[11.02,49.58]}}
{"_id":"D-Brandenburg-Cottbus","name":"Cottbus","country":"D","province":"Brandenburg","population":99984,"latitude":51.76,"longitude":14.33,"elevation":75,"other_names":null,"location":{"type":"Point","coordinates":[14.33,51.76]}}
{"_id":"D-Bayern-Ingolstadt","name":"Ingolstadt","country":"D","province":"Bayern","population":124927,"latitude":48.77,"longitude":11.43,"elevation":374,"other_names":null,"location":{"type":"Point","coordinates":[11.43,48.77]}}
{"_id":"D-Bremen-Bremen","name":"Bremen","country":"D","province":"Bremen","population":542707,"latitude":53.08,"longitude":8.8,"elevation":11,"other_names":null,"location":{"type":"Point","coordinates":[8.8,53.08]}}
{"_id":"D-Bremen-Bremerhaven","name":"Bremerhaven","country":"D","province":"Bremen","population":108156,"latitude":53.55,"longitude":8.58,"elevation":2,"other_names":null,"location":{"type":"Point","coordinates":[8.58,53.55]}}
{"_id":"D-Hessen-Wiesbaden","name":"Wiesbaden","country":"D","province":"Hessen","population":269121,"latitude":50.08,"longitude":8.24,"elevation":117,"other_names":null,"location":{"type":"Point","coordinates":[8.24,50.08]}}
{"_id":"D-Hessen-Darmstadt","name":"Darmstadt","country":"D","province":"Hessen","population":143499,"latitude":49.87,"longitude":8.65,"elevation":144,"other_names":null,"location":{"type":"Point","coordinates":[8.65,49.87]}}
{"_id":"D-Hamburg-Hamburg","name":"Hamburg","country":"D","province":"Hamburg","population":1706696,"latitude":53.57,"longitude":10,"elevation":6,"other_names":null,"location":{"type":"Point","coordinates":[10.0,53.57]}}
{"_id":"D-Hessen-Kassel","name":"Kassel","country":"D","province":"Hessen","population":190765,"latitude":51.32,"longitude":9.5,"elevation":167,"other_names":null,"location":{"type":"Point","coordinates":[9.5,51.32]}}
{"_id":"D-Hessen-Frankfurt am Main","name":"Frankfurt am Main","country":"D","province":"Hessen","population":667925,"latitude":50.12,"longitude":8.68,"elevation":112,"other_names":["Frankfurt"],"location":{"type":"Point","coordinates":[8.68,50.12]}}
{"_id":"D-Mecklenburg-Vorpommern-Schwerin","name":"Schwerin","country":"D","province":"Mecklenburg-Vorpommern","population":91293,"latitude":53.63,"longitude":11.42,"elevation":44,"other_names":null,"location":{"type":"Point","coordinates":[11.42,53.63]}}
{"_id":"D-Hessen-Offenbach am Main","name":"Offenbach am Main","country":"D","province":"Hessen","population":113443,"latitude":50.1,"longitude":8.8,"elevation":98,"other_names":["Offenbach"],"location":{"type":"Point","coordinates":[8.8,50.1]}}
{"_id":"D-Niedersachsen-Hannover","name":"Hannover","country":"D","province":"Niedersachsen","population":506416,"latitude":52.37,"longitude":9.72,"elevation":55,"other_names":["Hanover"],"location":{"type":"Point","coordinates":[9.72,52.37]}}
{"_id":"D-Mecklenburg-Vorpommern-Rostock","name":"Rostock","country":"D","province":"Mecklenburg-Vorpommern","population":200265,"latitude":54.08,"longitude":12.13,"elevation":14,"other_names":null,"location":{"type":"Point","coordinates":[12.13,54.08]}}
{"_id":"D-Niedersachsen-Braunschweig","name":"Braunschweig","country":"D","province":"Niedersachsen","population":242537,"latitude":52.27,"longitude":10.52,"elevation":75,"other_names":null,"location":{"type":"Point","coordinates":[10.52,52.27]}}
{"_id":"D-Niedersachsen-Osnabrück","name":"Osnabrück","country":"D","province":"Niedersachsen","population":153699,"latitude":52.28,"longitude":8.05,"elevation":63,"other_names":null,"location":{"type":"Point","coordinates":[8.05,52.28]}}
{"_id":"D-Niedersachsen-Oldenburg","name":"Oldenburg","country":"D","province":"Niedersachsen","population":157267,"latitude":53.14,"longitude":8.21,"elevation":5,"other_names":null,"location":{"type":"Point","coordinates":[8.21,53.14]}}
{"_id":"D-Niedersachsen-Göttingen","name":"Göttingen","country":"D","province":"Niedersachsen","population":115843,"latitude":51.53,"longitude":9.94,"elevation":150,"other_names":null,"location":{"type":"Point","coordinates":[9.94,51.53]}}
{"_id":"D-Niedersachsen-Wolfsburg","name":"Wolfsburg","country":"D","province":"Niedersachsen","population":119984,"latitude":52.42,"longitude":10.79,"elevation":63,"other_names":null,"location":{"type":"Point","coordinates":[10.79,52.42]}}
{"_id":"D-Niedersachsen-Salzgitter","name":"Salzgitter","country":"D","province":"Niedersachsen","population":98895,"latitude":52.15,"longitude":10.33,"elevation":90,"other_names":null,"location":{"type":"Point","coordinates":[10.33,52.15]}}
{"_id":"D-Niedersachsen-Hildesheim","name":"Hildesheim","country":"D","province":"Niedersachsen","population":99554,"latitude":52.15,"longitude":9.95,"elevation":81,"other_names":null,"location":{"type":"Point","coordinates":[9.95,52.15]}}
{"_id":"D-Nordrhein-Westfalen-Düsseldorf","name":"Düsseldorf","country":"D","province":"Nordrhein-Westfalen","population":586291,"latitude":51.23,"longitude":6.78,"elevation":38,"other_names":null,"location":{"type":"Point","coordinates":[6.78,51.23]}}
{"_id":"D-Nordrhein-Westfalen-Köln","name":"Köln","country":"D","province":"Nordrhein-Westfalen","population":1005775,"latitude":50.94,"longitude":6.95,"elevation":53,"other_names":["Cologne"],"location":{"type":"Point","coordinates":[6.95,50.94]}}
{"_id":"D-Nordrhein-Westfalen-Essen","name":"Essen","country":"D","province":"Nordrhein-Westfalen","population":566201,"latitude":51.45,"longitude":7.01,"elevation":116,"other_names":null,"location":{"type":"Point","coordinates":[7.01,51.45]}}
{"_id":"D-Nordrhein-Westfalen-Dortmund","name":"Dortmund","country":"D","province":"Nordrhein-Westfalen","population":571143,"latitude":51.52,"longitude":7.47,"elevation":86,"other_names":null,"location":{"type":"Point","coordinates":[7.47,51.52]}}
{"_id":"D-Nordrhein-Westfalen-Duisburg","name":"Duisburg","country":"D","province":"Nordrhein-Westfalen","population":488468,"latitude":51.44,"longitude":6.76,"elevation":33,"other_names":null,"location":{"type":"Point","coordinates":[6.76,51.44]}}
{"_id":"D-Nordrhein-Westfalen-Bochum","name":"Bochum","country":"D","province":"Nordrhein-Westfalen","population":362286,"latitude":51.48,"longitude":7.22,"elevation":100,"other_names":null,"location":{"type":"Point","coordinates":[7.22,51.48]}}
{"_id":"D-Nordrhein-Westfalen-Wuppertal","name":"Wuppertal","country":"D","province":"Nordrhein-Westfalen","population":342661,"latitude":51.27,"longitude":7.18,"elevation":160,"other_names":null,"location":{"type":"Point","coordinates":[7.18,51.27]}}
{"_id":"D-Nordrhein-Westfalen-Bielefeld","name":"Bielefeld","country":"D","province":"Nordrhein-Westfalen","population":326870,"latitude":52.02,"longitude":8.52,"elevation":118,"other_names":null,"location":{"type":"Point","coordinates":[8.52,52.02]}}
{"_id":"D-Nordrhein-Westfalen-Bonn","name":"Bonn","country":"D","province":"Nordrhein-Westfalen","population":305765,"latitude":50.73,"longitude":7.1,"elevation":60,"other_names":null,"location":{"type":"Point","coordinates":[7.1,50.73]}}
{"_id":"D-Nordrhein-Westfalen-Gelsenkirchen","name":"Gelsenkirchen","country":"D","province":"Nordrhein-Westfalen","population":258766,"latitude":51.52,"longitude":7.1,"elevation":48,"other_names":null,"location":{"type":"Point","coordinates":[7.1,51.52]}}
{"_id":"D-Nordrhein-Westfalen-Mönchengladbach","name":"Mönchengladbach","country":"D","province":"Nordrhein-Westfalen","population":255188,"latitude":51.2,"longitude":6.43,"elevation":70,"other_names":null,"location":{"type":"Point","coordinates":[6.43,51.2]}}
{"_id":"D-Nordrhein-Westfalen-Aachen","name":"Aachen","country":"D","province":"Nordrhein-Westfalen","population":236420,"latitude":50.78,"longitude":6.08,"elevation":173,"other_names":null,"location":{"type":"Point","coordinates":[6.08,50.78]}}
{"_id":"D-Nordrhein-Westfalen-Münster","name":"Münster","country":"D","province":"Nordrhein-Westfalen","population":289576,"latitude":51.97,"longitude":7.63,"elevation":60,"other_names":null,"location":{"type":"Point","coordinates":[7.63,51.97]}}
{"_id":"D-Nordrhein-Westfalen-Krefeld","name":"Krefeld","country":"D","province":"Nordrhein-Westfalen","population":222247,"latitude":51.33,"longitude":6.57,"elevation":38,"other_names":null,"location":{"type":"Point","coordinates":[6.57,51.33]}}
{"_id":"D-Nordrhein-Westfalen-Oberhausen","name":"Oberhausen","country":"D","province":"Nordrhein-Westfalen","population":210216,"latitude":51.55,"longitude":6.85,"elevation":35,"other_names":null,"location":{"type":"Point","coordinates":[6.85,51.55]}}
{"_id":"D-Nordrhein-Westfalen-Hamm","name":"Hamm","country":"D","province":"Nordrhein-Westfalen","population":176037,"latitude":51.68,"longitude":7.82,"elevation":63,"other_names":null,"location":{"type":"Point","coordinates":[7.82,51.68]}}
{"_id":"D-Nordrhein-Westfalen-Hagen","name":"Hagen","country":"D","province":"Nordrhein-Westfalen","population":187944,"latitude":51.37,"longitude":7.48,"elevation":106,"other_names":null,"location":{"type":"Point","coordinates":[7.48,51.37]}}
{"_id":"D-Nordrhein-Westfalen-Herne","name":"Herne","country":"D","province":"Nordrhein-Westfalen","population":155160,"latitude":51.55,"longitude":7.22,"elevation":65,"other_names":null,"location":{"type":"Point","coordinates":[7.22,51.55]}}
{"_id":"D-Nordrhein-Westfalen-Leverkusen","name":"Leverkusen","country":"D","province":"Nordrhein-Westfalen","population":158984,"latitude":51.03,"longitude":6.98,"elevation":60,"other_names":null,"location":{"type":"Point","coordinates":[6.98,51.03]}}
{"_id":"D-Nordrhein-Westfalen-Mülheim an der Ruhr","name":"Mülheim an der Ruhr","country":"D","province":"Nordrhein-Westfalen","population":166865,"latitude":51.43,"longitude":6.88,"elevation":40,"other_names":["Mülheim"],"location":{"type":"Point","coordinates":[6.88,51.43]}}
{"_id":"D-Nordrhein-Westfalen-Solingen","name":"Solingen","country":"D","province":"Nordrhein-Westfalen","population":155265,"latitude":51.17,"longitude":7.08,"elevation":221,"other_names":null,"location":{"type":"Point","coordinates":[7.08,51.17]}}
{"_id":"D-Nordrhein-Westfalen-Neuss","name":"Neuss","country":"D","province":"Nordrhein-Westfalen","population":150568,"latitude":51.2,"longitude":6.7,"elevation":40,"other_names":null,"location":{"type":"Point","coordinates":[6.7,51.2]}}
{"_id":"D-Nordrhein-Westfalen-Recklinghausen","name":"Recklinghausen","country":"D","province":"Nordrhein-Westfalen","population":115958,"latitude":51.59,"longitude":7.16,"elevation":85,"other_names":null,"location":{"type":"Point","coordinates":[7.16,51.59]}}
{"_id":"D-Nordrhein-Westfalen-Remscheid","name":"Remscheid","country":"D","province":"Nordrhein-Westfalen","population":110708,"latitude":51.18,"longitude":7.2,"elevation":365,"other_names":null,"location":{"type":"Point","coordinates":[7.2,51.18]}}
{"_id":"D-Nordrhein-Westfalen-Paderborn","name":"Paderborn","country":"D","province":"Nordrhein-Westfalen","population":142365,"latitude":51.72,"longitude":8.77,"elevation":110,"other_names":null,"location":{"type":"Point","coordinates":[8.77,51.72]}}
{"_id":"D-Nordrhein-Westfalen-Bottrop","name":"Bottrop","country":"D","province":"Nordrhein-Westfalen","population":117311,"latitude":51.52,"longitude":6.92,"elevation":55,"other_names":null,"location":{"type":"Point","coordinates":[6.92,51.52]}}
{"_id":"D-Nordrhein-Westfalen-Siegen","name":"Siegen","country":"D","province":"Nordrhein-Westfalen","population":99187,"latitude":50.88,"longitude":8.02,"elevation":267,"other_names":null,"location":{"type":"Point","coordinates":[8.02,50.88]}}
{"_id":"D-Nordrhein-Westfalen-Moers","name":"Moers","country":"D","province":"Nordrhein-Westfalen","population":104009,"latitude":51.46,"longitude":6.62,"elevation":30,"other_names":null,"location":{"type":"Point","coordinates":[6.62,51.46]}}
{"_id":"D-Nordrhein-Westfalen-Bergisch Gladbach","name":"Bergisch Gladbach","country":"D","province":"Nordrhein-Westfalen","population":108878,"latitude":51.1,"longitude":7.12,"elevation":100,"other_names":null,"location":{"type":"Point","coordinates":[7.12,51.1]}}
{"_id":"D-Rheinland-Pfalz-Mainz","name":"Mainz","country":"D","province":"Rheinland-Pfalz","population":200344,"latitude":50,"longitude":8.27,"elevation":89,"other_names":null,"location":{"type":"Point","coordinates":[8.27,50.0]}}
{"_id":"D-Nordrhein-Westfalen-Witten","name":"Witten","country":"D","province":"Nordrhein-Westfalen","population":96382,"latitude":51.43,"longitude":7.33,"elevation":104,"other_names":null,"location":{"type":"Point","coordinates":[7.33,51.43]}}
{"_id":"D-Rheinland-Pfalz-Ludwigshafen","name":"Ludwigshafen","country":"D","province":"Rheinland-Pfalz","population":157584,"latitude":49.48,"longitude":8.44,"elevation":95,"other_names":["Ludwigshafen am Rhein"],"location":{"type":"Point","coordinates":[8.44,49.48]}}
{"_id":"D-Rheinland-Pfalz-Koblenz","name":"Koblenz","country":"D","province":"Rheinland-Pfalz","population":107825,"latitude":50.36,"longitude":7.6,"elevation":73,"other_names":null,"location":{"type":"Point","coordinates":[7.6,50.36]}}
{"_id":"D-Rheinland-Pfalz-Kaiserslautern","name":"Kaiserslautern","country":"D","province":"Rheinland-Pfalz","population":96340,"latitude":49.44,"longitude":7.77,"elevation":251,"other_names":null,"location":{"type":"Point","coordinates":[7.77,49.44]}}
{"_id":"D-Saarland-Saarbrücken","name":"Saarbrücken","country":"D","province":"Saarland","population":175853,"latitude":49.23,"longitude":7,"elevation":230,"other_names":null,"location":{"type":"Point","coordinates":[7.0,49.23]}}
{"_id":"D-Sachsen-Dresden","name":"Dresden","country":"D","province":"Sachsen","population":512354,"latitude":51.03,"longitude":13.73,"elevation":112,"other_names":null,"location":{"type":"Point","coordinates":[13.73,51.03]}}
{"_id":"D-Sachsen-Leipzig","name":"Leipzig","country":"D","province":"Sachsen","population":502979,"latitude":51.33,"longitude":12.38,"elevation":113,"other_names":null,"location":{"type":"Point","coordinates":[12.38,51.33]}}
{"_id":"D-Rheinland-Pfalz-Trier","name":"Trier","country":"D","province":"Rheinland-Pfalz","population":105671,"latitude":49.75,"longitude":6.63,"elevation":137,"other_names":null,"location":{"type":"Point","coordinates":[6.63,49.75]}}
{"_id":"D-Sachsen-Chemnitz","name":"Chemnitz","country":"D","province":"Sachsen","population":240253,"latitude":50.83,"longitude":12.92,"elevation":298,"other_names":null,"location":{"type":"Point","coordinates":[12.92,50.83]}}
{"_id":"D-Sachsen-Zwickau","name":"Zwickau","country":"D","province":"Sachsen","population":93081,"latitude":50.72,"longitude":12.5,"elevation":267,"other_names":null,"location":{"type":"Point","coordinates":[12.5,50.72]}}
{"_id":"D-Sachsen-Anhalt-Magdeburg","name":"Magdeburg","country":"D","province":"Sachsen-Anhalt","population":228144,"latitude":52.13,"longitude":11.62,"elevation":55,"other_names":null,"location":{"type":"Point","coordinates":[11.62,52.13]}}
{"_id":"D-Sachsen-Anhalt-Halle","name":"Halle","country":"D","province":"Sachsen-Anhalt","population":229153,"latitude":51.48,"longitude":11.97,"elevation":88,"other_names":null,"location":{"type":"Point","coordinates":[11.97,51.48]}}
{"_id":"D-Schleswig-Holstein-Kiel","name":"Kiel","country":"D","province":"Schleswig-Holstein","population":235782,"latitude":54.33,"longitude":10.13,"elevation":5,"other_names":null,"location":{"type":"Point","coordinates":[10.13,54.33]}}
{"_id":"D-Schleswig-Holstein-Lübeck","name":"Lübeck","country":"D","province":"Schleswig-Holstein","population":210305,"latitude":53.87,"longitude":10.69,"elevation":13,"other_names":null,"location":{"type":"Point","coordinates":[10.69,53.87]}}
{"_id":"D-Thüringen-Gera","name":"Gera","country":"D","province":"Thüringen","population":96067,"latitude":50.88,"longitude":12.08,"elevation":194,"other_names":null,"location":{"type":"Point","coordinates":[12.08,50.88]}}
{"_id":"D-Thüringen-Erfurt","name":"Erfurt","country":"D","province":"Thüringen","population":200868,"latitude":50.98,"longitude":11.03,"elevation":194,"other_names":null,"location":{"type":"Point","coordinates":[11.03,50.98]}}
{"_id":"H-Baranya-Pécs","name":"Pécs","country":"H","province":"Baranya","population":156049,"latitude":46.07,"longitude":18.23,"elevation":153,"other_names":null,"location":{"type":"Point","coordinates":[18.23,46.07]}}
{"_id":"H-Békés-Békéscsaba","name":"Békéscsaba","country":"H","province":"Békés","population":62050,"latitude":46.68,"longitude":21.09,"elevation":89,"other_names":null,"location":{"type":"Point","coordinates":[21.09,46.68]}}
{"_id":"D-Thüringen-Jena","name":"Jena","country":"D","province":"Thüringen","population":105739,"latitude":50.93,"longitude":11.59,"elevation":143,"other_names":null,"location":{"type":"Point","coordinates":[11.59,50.93]}}
{"_id":"H-Bács-Kiskun-Kecskemét","name":"Kecskemét","country":"H","province":"Bács-Kiskun","population":111411,"latitude":46.91,"longitude":19.69,"elevation":105,"other_names":null,"location":{"type":"Point","coordinates":[19.69,46.91]}}
{"_id":"H-Csongrád-Szeged","name":"Szeged","country":"H","province":"Csongrád","population":168048,"latitude":46.26,"longitude":20.15,"elevation":75,"other_names":null,"location":{"type":"Point","coordinates":[20.15,46.26]}}
{"_id":"H-Borsod-Abaúj-Zemplén-Miskolc","name":"Miskolc","country":"H","province":"Borsod-Abaúj-Zemplén","population":167754,"latitude":48.1,"longitude":20.79,"elevation":131,"other_names":null,"location":{"type":"Point","coordinates":[20.79,48.1]}}
{"_id":"H-Fejér-Székesfehérvár","name":"Székesfehérvár","country":"H","province":"Fejér","population":100570,"latitude":47.19,"longitude":18.41,"elevation":118,"other_names":null,"location":{"type":"Point","coordinates":[18.41,47.19]}}
{"_id":"H-Csongrád-Hódmezővásárhely","name":"Hódmezővásárhely","country":"H","province":"Csongrád","population":null,"latitude":46.43,"longitude":20.32,"elevation":null,"other_names":null,"location":{"type":"Point","coordinates":[20.32,46.43]}}
{"_id":"H-Hajdú-Bihar-Debrecen","name":"Debrecen","country":"H","province":"Hajdú-Bihar","population":211320,"latitude":47.53,"longitude":21.64,"elevation":121,"other_names":null,"location":{"type":"Point","coordinates":[21.64,47.53]}}
{"_id":"H-Győr-Moson-Sopron-Győr","name":"Győr","country":"H","province":"Győr-Moson-Sopron","population":129527,"latitude":47.68,"longitude":17.63,"elevation":108,"other_names":null,"location":{"type":"Point","coordinates":[17.63,47.68]}}
{"_id":"H-Heves-Eger","name":"Eger","country":"H","province":"Heves","population":56569,"latitude":47.9,"longitude":20.37,"elevation":165,"other_names":null,"location":{"type":"Point","coordinates":[20.37,47.9]}}
{"_id":"H-Nógrád-Salgótarján","name":"Salgótarján","country":"H","province":"Nógrád","population":null,"latitude":48.09,"longitude":19.79,"elevation":299,"other_names":null,"location":{"type":"Point","coordinates":[19.79,48.09]}}
{"_id":"H-Komárom-Esztergom-Tatabánya","name":"Tatabánya","country":"H","province":"Komárom-Esztergom","population":67753,"latitude":47.59,"longitude":18.39,"elevation":167,"other_names":null,"location":{"type":"Point","coordinates":[18.39,47.59]}}
{"_id":"H-Somogy-Kaposvár","name":"Kaposvár","country":"H","province":"Somogy","population":66245,"latitude":46.36,"longitude":17.78,"elevation":153,"other_names":null,"location":{"type":"Point","coordinates":[17.78,46.36]}}
{"_id":"H-Szabolcs-Szatmár-Bereg-Nyíregyháza","name":"Nyíregyháza","country":"H","province":"Szabolcs-Szatmár-Bereg","population":119746,"latitude":47.95,"longitude":21.73,"elevation":116,"other_names":null,"location":{"type":"Point","coordinates":[21.73,47.95]}}
{"_id":"H-Tolna-Szekszárd","name":"Szekszárd","country":"H","province":"Tolna","population":null,"latitude":46.36,"longitude":18.7,"elevation":83,"other_names":null,"location":{"type":"Point","coordinates":[18.7,46.36]}}
{"_id":"H-Jász-Nagykun-Szolnok-Szolnok","name":"Szolnok","country":"H","province":"Jász-Nagykun-Szolnok","population":72953,"latitude":47.17,"longitude":20.18,"elevation":68,"other_names":null,"location":{"type":"Point","coordinates":[20.18,47.17]}}
{"_id":"H-Vas-Szombathely","name":"Szombathely","country":"H","province":"Vas","population":78884,"latitude":47.24,"longitude":16.62,"elevation":209,"other_names":null,"location":{"type":"Point","coordinates":[16.62,47.24]}}
{"_id":"H-Zala-Zalaegerszeg","name":"Zalaegerszeg","country":"H","province":"Zala","population":59499,"latitude":46.85,"longitude":16.85,"elevation":166,"other_names":null,"location":{"type":"Point","coordinates":[16.85,46.85]}}
{"_id":"H-Budapest-Budapest","name":"Budapest","country":"H","province":"Budapest","population":1729040,"latitude":47.49,"longitude":19.05,"elevation":102,"other_names":null,"location":{"type":"Point","coordinates":[19.05,47.49]}}
{"_id":"I-Piemonte-Torino","name":"Torino","country":"I","province":"Piemonte","population":872367,"latitude":45.07,"longitude":7.7,"elevation":239,"other_names":["Turin"],"location":{"type":"Point","coordinates":[7.7,45.07]}}
{"_id":"H-Veszprém-Veszprém","name":"Veszprém","country":"H","province":"Veszprém","population":61721,"latitude":47.09,"longitude":17.91,"elevation":266,"other_names":null,"location":{"type":"Point","coordinates":[17.91,47.09]}}
{"_id":"I-Piemonte-Novara","name":"Novara","country":"I","province":"Piemonte","population":101952,"latitude":45.45,"longitude":8.62,"elevation":162,"other_names":null,"location":{"type":"Point","coordinates":[8.62,45.45]}}
{"_id":"I-Valle d'Aosta-Aosta","name":"Aosta","country":"I","province":"Valle d'Aosta","population":null,"latitude":45.73,"longitude":7.32,"elevation":583,"other_names":null,"location":{"type":"Point","coordinates":[7.32,45.73]}}
{"_id":"I-Lombardia-Bréscia","name":"Bréscia","country":"I","province":"Lombardia","population":189902,"latitude":45.54,"longitude":10.22,"elevation":149,"other_names":null,"location":{"type":"Point","coordinates":[10.22,45.54]}}
{"_id":"I-Lombardia-Bérgamo","name":"Bérgamo","country":"I","province":"Lombardia","population":115349,"latitude":45.7,"longitude":9.67,"elevation":249,"other_names":null,"location":{"type":"Point","coordinates":[9.67,45.7]}}
{"_id":"I-Lombardia-Monza","name":"Monza","country":"I","province":"Lombardia","population":119856,"latitude":45.58,"longitude":9.27,"elevation":162,"other_names":null,"location":{"type":"Point","coordinates":[9.27,45.58]}}
{"_id":"I-Trentino-Alto Adige-Bolzano","name":"Bolzano","country":"I","province":"Trentino-Alto Adige","population":102575,"latitude":46.5,"longitude":11.35,"elevation":262,"other_names":["Bozen"],"location":{"type":"Point","coordinates":[11.35,46.5]}}
{"_id":"I-Lombardia-Milano","name":"Milano","country":"I","province":"Lombardia","population":1242123,"latitude":45.47,"longitude":9.18,"elevation":120,"other_names":["Milan"],"location":{"type":"Point","coordinates":[9.18,45.47]}}
{"_id":"I-Veneto-Pádova","name":"Pádova","country":"I","province":"Veneto","population":206192,"latitude":45.42,"longitude":11.87,"elevation":12,"other_names":["Padua"],"location":{"type":"Point","coordinates":[11.87,45.42]}}
{"_id":"I-Trentino-Alto Adige-Trento","name":"Trento","country":"I","province":"Trentino-Alto Adige","population":114198,"latitude":46.07,"longitude":11.12,"elevation":190,"other_names":null,"location":{"type":"Point","coordinates":[11.12,46.07]}}
{"_id":"I-Veneto-Verona","name":"Verona","country":"I","province":"Veneto","population":252520,"latitude":45.43,"longitude":10.98,"elevation":59,"other_names":null,"location":{"type":"Point","coordinates":[10.98,45.43]}}
{"_id":"I-Veneto-Venézia","name":"Venézia","country":"I","province":"Veneto","population":261362,"latitude":45.44,"longitude":12.34,"elevation":1,"other_names":["Venice"],"location":{"type":"Point","coordinates":[12.34,45.44]}}
{"_id":"I-Veneto-Vicenza","name":"Vicenza","country":"I","province":"Veneto","population":111500,"latitude":45.55,"longitude":11.55,"elevation":39,"other_names":null,"location":{"type":"Point","coordinates":[11.55,45.55]}}
{"_id":"I-Friuli-Venezia Giulia-Trieste","name":"Trieste","country":"I","province":"Friuli-Venezia Giulia","population":202123,"latitude":45.63,"longitude":13.8,"elevation":2,"other_names":null,"location":{"type":"Point","coordinates":[13.8,45.63]}}
{"_id":"I-Liguria-La Spezia","name":"La Spezia","country":"I","province":"Liguria","population":92659,"latitude":44.1,"longitude":9.82,"elevation":10,"other_names":null,"location":{"type":"Point","coordinates":[9.82,44.1]}}
{"_id":"I-Liguria-Génova","name":"Génova","country":"I","province":"Liguria","population":586180,"latitude":44.41,"longitude":8.93,"elevation":20,"other_names":["Genoa"],"location":{"type":"Point","coordinates":[8.93,44.41]}}
{"_id":"I-Emilia-Romagna-Bologna","name":"Bologna","country":"I","province":"Emilia-Romagna","population":371337,"latitude":44.51,"longitude":11.35,"elevation":54,"other_names":null,"location":{"type":"Point","coordinates":[11.35,44.51]}}
{"_id":"I-Emilia-Romagna-Forlí","name":"Forlí","country":"I","province":"Emilia-Romagna","population":116434,"latitude":44.23,"longitude":12.05,"elevation":34,"other_names":null,"location":{"type":"Point","coordinates":[12.05,44.23]}}
{"_id":"I-Emilia-Romagna-Ferrara","name":"Ferrara","country":"I","province":"Emilia-Romagna","population":132545,"latitude":44.83,"longitude":11.62,"elevation":9,"other_names":null,"location":{"type":"Point","coordinates":[11.62,44.83]}}
{"_id":"I-Emilia-Romagna-Módena","name":"Módena","country":"I","province":"Emilia-Romagna","population":179149,"latitude":44.65,"longitude":10.93,"elevation":34,"other_names":null,"location":{"type":"Point","coordinates":[10.93,44.65]}}
{"_id":"I-Emilia-Romagna-Piacenza","name":"Piacenza","country":"I","province":"Emilia-Romagna","population":100311,"latitude":45.05,"longitude":9.7,"elevation":61,"other_names":null,"location":{"type":"Point","coordinates":[9.7,45.05]}}
{"_id":"I-Emilia-Romagna-Parma","name":"Parma","country":"I","province":"Emilia-Romagna","population":175895,"latitude":44.8,"longitude":10.33,"elevation":55,"other_names":null,"location":{"type":"Point","coordinates":[10.33,44.8]}}
{"_id":"I-Emilia-Romagna-Ravenna","name":"Ravenna","country":"I","province":"Emilia-Romagna","population":153740,"latitude":44.42,"longitude":12.2,"elevation":4,"other_names":null,"location":{"type":"Point","coordinates":[12.2,44.42]}}
{"_id":"I-Emilia-Romagna-Reggio nell'Emilia","name":"Reggio nell'Emilia","country":"I","province":"Emilia-Romagna","population":null,"latitude":44.7,"longitude":10.63,"elevation":58,"other_names":["Reggio Emilia"],"location":{"type":"Point","coordinates":[10.63,44.7]}}
{"_id":"I-Emilia-Romagna-Rímini","name":"Rímini","country":"I","province":"Emilia-Romagna","population":139601,"latitude":44.05,"longitude":12.57,"elevation":6,"other_names":null,"location":{"type":"Point","coordinates":[12.57,44.05]}}
{"_id":"I-Toscana-Livorno","name":"Livorno","country":"I","province":"Toscana","population":157052,"latitude":43.55,"longitude":10.32,"elevation":3,"other_names":null,"location":{"type":"Point","coordinates":[10.32,43.55]}}
{"_id":"I-Toscana-Pisa","name":"Pisa","country":"I","province":"Toscana","population":85858,"latitude":43.72,"longitude":10.4,"elevation":4,"other_names":null,"location":{"type":"Point","coordinates":[10.4,43.72]}}
{"_id":"I-Toscana-Prato","name":"Prato","country":"I","province":"Toscana","population":185456,"latitude":43.88,"longitude":11.1,"elevation":65,"other_names":null,"location":{"type":"Point","coordinates":[11.1,43.88]}}
{"_id":"I-Toscana-Firenze","name":"Firenze","country":"I","province":"Toscana","population":358079,"latitude":43.78,"longitude":11.25,"elevation":50,"other_names":["Florence"],"location":{"type":"Point","coordinates":[11.25,43.78]}}
{"_id":"I-Umbria-Perúgia","name":"Perúgia","country":"I","province":"Umbria","population":162449,"latitude":43.11,"longitude":12.39,"elevation":493,"other_names":null,"location":{"type":"Point","coordinates":[12.39,43.11]}}
{"_id":"I-Marche-Ancona","name":"Ancona","country":"I","province":"Marche","population":100497,"latitude":43.62,"longitude":13.52,"elevation":16,"other_names":null,"location":{"type":"Point","coordinates":[13.52,43.62]}}
{"_id":"I-Umbria-Terni","name":"Terni","country":"I","province":"Umbria","population":109193,"latitude":42.57,"longitude":12.65,"elevation":130,"other_names":null,"location":{"type":"Point","coordinates":[12.65,42.57]}}
{"_id":"I-Lazio-Latina","name":"Latina","country":"I","province":"Lazio","population":117892,"latitude":41.47,"longitude":12.9,"elevation":21,"other_names":null,"location":{"type":"Point","coordinates":[12.9,41.47]}}
{"_id":"I-Lazio-Roma","name":"Roma","country":"I","province":"Lazio","population":2617175,"latitude":41.9,"longitude":12.5,"elevation":21,"other_names":["Rome"],"location":{"type":"Point","coordinates":[12.5,41.9]}}
{"_id":"I-Abruzzo-L'Aquila","name":"L'Aquila","country":"I","province":"Abruzzo","population":null,"latitude":42.35,"longitude":13.4,"elevation":714,"other_names":null,"location":{"type":"Point","coordinates":[13.4,42.35]}}
{"_id":"I-Abruzzo-Pescara","name":"Pescara","country":"I","province":"Abruzzo","population":117166,"latitude":42.46,"longitude":14.21,"elevation":0,"other_names":null,"location":{"type":"Point","coordinates":[14.21,42.46]}}
{"_id":"I-Molise-Campobasso","name":"Campobasso","country":"I","province":"Molise","population":null,"latitude":41.57,"longitude":14.67,"elevation":701,"other_names":null,"location":{"type":"Point","coordinates":[14.67,41.57]}}
{"_id":"I-Campania-Salerno","name":"Salerno","country":"I","province":"Campania","population":132608,"latitude":40.68,"longitude":14.77,"elevation":4,"other_names":null,"location":{"type":"Point","coordinates":[14.77,40.68]}}
{"_id":"I-Campania-Nápoli","name":"Nápoli","country":"I","province":"Campania","population":962003,"latitude":40.83,"longitude":14.25,"elevation":17,"other_names":["Naples"],"location":{"type":"Point","coordinates":[14.25,40.83]}}
{"_id":"I-Campania-Torre del Greco","name":"Torre del Greco","country":"I","province":"Campania","population":85922,"latitude":40.78,"longitude":14.37,"elevation":null,"other_names":null,"location":{"type":"Point","coordinates":[14.37,40.78]}}
{"_id":"I-Campania-Giugliano in Campania","name":"Giugliano in Campania","country":"I","province":"Campania","population":108793,"latitude":40.93,"longitude":14.2,"elevation":null,"other_names":null,"location":{"type":"Point","coordinates":[14.2,40.93]}}
{"_id":"I-Puglia-Fóggia","name":"Fóggia","country":"I","province":"Puglia","population":147036,"latitude":41.46,"longitude":15.55,"elevation":76,"other_names":null,"location":{"type":"Point","coordinates":[15.55,41.46]}}
{"_id":"I-Puglia-Bari","name":"Bari","country":"I","province":"Puglia","population":315933,"latitude":41.13,"longitude":16.87,"elevation":5,"other_names":null,"location":{"type":"Point","coordinates":[16.87,41.13]}}
{"_id":"I-Puglia-Lecce","name":"Lecce","country":"I","province":"Puglia","population":89916,"latitude":40.35,"longitude":18.17,"elevation":49,"other_names":null,"location":{"type":"Point","coordinates":[18.17,40.35]}}
{"_id":"I-Puglia-Andria","name":"Andria","country":"I","province":"Puglia","population":100052,"latitude":41.22,"longitude":16.3,"elevation":151,"other_names":null,"location":{"type":"Point","coordinates":[16.3,41.22]}}
{"_id":"I-Puglia-Táranto","name":"Táranto","country":"I","province":"Puglia","population":200154,"latitude":40.47,"longitude":17.23,"elevation":15,"other_names":null,"location":{"type":"Point","coordinates":[17.23,40.47]}}
{"_id":"I-Basilicata-Potenza","name":"Potenza","country":"I","province":"Basilicata","population":null,"latitude":40.63,"longitude":15.8,"elevation":819,"other_names":null,"location":{"type":"Point","coordinates":[15.8,40.63]}}
{"_id":"I-Calabria-Catanzaro","name":"Catanzaro","country":"I","province":"Calabria","population":89364,"latitude":38.9,"longitude":16.6,"elevation":342,"other_names":null,"location":{"type":"Point","coordinates":[16.6,38.9]}}
{"_id":"I-Calabria-Cosenza","name":"Cosenza","country":"I","province":"Calabria","population":69484,"latitude":39.3,"longitude":16.25,"elevation":238,"other_names":null,"location":{"type":"Point","coordinates":[16.25,39.3]}}
{"_id":"I-Calabria-Réggio di Calabria","name":"Réggio di Calabria","country":"I","province":"Calabria","population":180817,"latitude":38.11,"longitude":15.66,"elevation":31,"other_names":["Reggio Calabria"],"location":{"type":"Point","coordinates":[15.66,38.11]}}
{"_id":"I-Sicilia-Palermo","name":"Palermo","country":"I","province":"Sicilia","population":657561,"latitude":38.12,"longitude":13.37,"elevation":14,"other_names":null,"location":{"type":"Point","coordinates":[13.37,38.12]}}
{"_id":"I-Sicilia-Messina","name":"Messina","country":"I","province":"Sicilia","population":243262,"latitude":38.18,"longitude":15.55,"elevation":3,"other_names":null,"location":{"type":"Point","coordinates":[15.55,38.18]}}
{"_id":"I-Sicilia-Siracusa","name":"Siracusa","country":"I","province":"Sicilia","population":118385,"latitude":37.08,"longitude":15.28,"elevation":17,"other_names":["Syracuse"],"location":{"type":"Point","coordinates":[15.28,37.08]}}
{"_id":"I-Sardegna-Cágliari","name":"Cágliari","country":"I","province":"Sardegna","population":149883,"latitude":39.25,"longitude":9.05,"elevation":4,"other_names":null,"location":{"type":"Point","coordinates":[9.05,39.25]}}
{"_id":"I-Sicilia-Catánia","name":"Catánia","country":"I","province":"Sicilia","population":293902,"latitude":37.5,"longitude":15.09,"elevation":7,"other_names":null,"location":{"type":"Point","coordinates":[15.09,37.5]}}
{"_id":"I-Sardegna-Sássari","name":"Sássari","country":"I","province":"Sardegna","population":123782,"latitude":40.73,"longitude":8.57,"elevation":225,"other_names":null,"location":{"type":"Point","coordinates":[8.57,40.73]}}
{"_id":"FL-Liechtenstein-Vaduz","name":"Vaduz","country":"FL","province":"Liechtenstein","population":5241,"latitude":47.14,"longitude":9.52,"elevation":455,"other_names":null,"location":{"type":"Point","coordinates":[9.52,47.14]}}
{"_id":"SK-Bratislavský-Bratislava","name":"Bratislava","country":"SK","province":"Bratislavský","population":411228,"latitude":48.14,"longitude":17.11,"elevation":134,"other_names":null,"location":{"type":"Point","coordinates":[17.11,48.14]}}
{"_id":"SK-Banskobystrický-Banská Bystrica","name":"Banská Bystrica","country":"SK","province":"Banskobystrický","population":80003,"latitude":48.73,"longitude":19.15,"elevation":362,"other_names":null,"location":{"type":"Point","coordinates":[19.15,48.73]}}
{"_id":"SK-Žilinský-Žilina","name":"Žilina","country":"SK","province":"Žilinský","population":81494,"latitude":49.22,"longitude":18.74,"elevation":342,"other_names":null,"location":{"type":"Point","coordinates":[18.74,49.22]}}
{"_id":"SK-Košický-Košice","name":"Košice","country":"SK","province":"Košický","population":240433,"latitude":48.72,"longitude":21.25,"elevation":206,"other_names":null,"location":{"type":"Point","coordinates":[21.25,48.72]}}
{"_id":"SK-Prešovský-Prešov","name":"Prešov","country":"SK","province":"Prešovský","population":91782,"latitude":49,"longitude":21.24,"elevation":250,"other_names":null,"location":{"type":"Point","coordinates":[21.24,49.0]}}
{"_id":"SK-Nitriansky-Nitra","name":"Nitra","country":"SK","province":"Nitriansky","population":78916,"latitude":48.31,"longitude":18.09,"elevation":190,"other_names":null,"location":{"type":"Point","coordinates":[18.09,48.31]}}
{"_id":"SK-Trenčiansky-Trenčín","name":"Trenčín","country":"SK","province":"Trenčiansky","population":55877,"latitude":48.89,"longitude":18.04,"elevation":211,"other_names":null,"location":{"type":"Point","coordinates":[18.04,48.89]}}
{"_id":"SK-Trnavský-Trnava","name":"Trnava","country":"SK","province":"Trnavský","population":66358,"latitude":48.38,"longitude":17.59,"elevation":146,"other_names":null,"location":{"type":"Point","coordinates":[17.59,48.38]}}
{"_id":"SLO-Slovenia-Ljubljana","name":"Ljubljana","country":"SLO","province":"Slovenia","population":282994,"latitude":46.06,"longitude":14.51,"elevation":295,"other_names":null,"location":{"type":"Point","coordinates":[14.51,46.06]}}
{"_id":"SLO-Slovenia-Maribor","name":"Maribor","country":"SLO","province":"Slovenia","population":111374,"latitude":46.55,"longitude":15.65,"elevation":275,"other_names":null,"location":{"type":"Point","coordinates":[15.65,46.55]}}
{"_id":"CH-Aargau-Aarau","name":"Aarau","country":"CH","province":"Aargau","population":null,"latitude":47.4,"longitude":8.05,"elevation":381,"other_names":null,"location":{"type":"Point","coordinates":[8.05,47.4]}}
{"_id":"CH-Appenzell Ausserrhoden-Herisau","name":"Herisau","country":"CH","province":"Appenzell Ausserrhoden","population":null,"latitude":47.38,"longitude":9.27,"elevation":771,"other_names":null,"location":{"type":"Point","coordinates":[9.27,47.38]}}
{"_id":"CH-Appenzell Innerrhoden-Appenzell","name":"Appenzell","country":"CH","province":"Appenzell Innerrhoden","population":null,"latitude":47.33,"longitude":9.42,"elevation":780,"other_names":null,"location":{"type":"Point","coordinates":[9.42,47.33]}}
{"_id":"CH-Basel-Landschaft-Liestal","name":"Liestal","country":"CH","province":"Basel-Landschaft","population":null,"latitude":47.47,"longitude":7.73,"elevation":327,"other_names":null,"location":{"type":"Point","coordinates":[7.73,47.47]}}
{"_id":"CH-Bern-Bern","name":"Bern","country":"CH","province":"Bern","population":128848,"latitude":46.95,"longitude":7.45,"elevation":542,"other_names":null,"location":{"type":"Point","coordinates":[7.45,46.95]}}
{"_id":"CH-Basel-Stadt-Basel","name":"Basel","country":"CH","province":"Basel-Stadt","population":167386,"latitude":47.57,"longitude":7.6,"elevation":260,"other_names":null,"location":{"type":"Point","coordinates":[7.6,47.57]}}
{"_id":"CH-Bern-Biel","name":"Biel","country":"CH","province":"Bern","population":53031,"latitude":47.13,"longitude":7.25,"elevation":434,"other_names":["Bienne"],"location":{"type":"Point","coordinates":[7.25,47.13]}}
{"_id":"CH-Fribourg-Fribourg","name":"Fribourg","country":"CH","province":"Fribourg","population":null,"latitude":46.8,"longitude":7.15,"elevation":610,"other_names":null,"location":{"type":"Point","coordinates":[7.15,46.8]}}
{"_id":"CH-Genève-Genève","name":"Genève","country":"CH","province":"Genève","population":191557,"latitude":46.2,"longitude":6.15,"elevation":375,"other_names":["Geneva"],"location":{"type":"Point","coordinates":[6.15,46.2]}}
{"_id":"CH-Glarus-Glarus","name":"Glarus","country":"CH","province":"Glarus","population":null,"latitude":47.03,"longitude":9.07,"elevation":472,"other_names":null,"location":{"type":"Point","coordinates":[9.07,47.03]}}
{"_id":"CH-Graubünden-Chur","name":"Chur","country":"CH","province":"Graubünden","population":null,"latitude":46.85,"longitude":9.53,"elevation":593,"other_names":null,"location":{"type":"Point","coordinates":[9.53,46.85]}}
{"_id":"CH-Jura-Delemont","name":"Delemont","country":"CH","province":"Jura","population":null,"latitude":47.37,"longitude":7.35,"elevation":435,"other_names":null,"location":{"type":"Point","coordinates":[7.35,47.37]}}
{"_id":"CH-Luzern-Luzern","name":"Luzern","country":"CH","province":"Luzern","population":80501,"latitude":47.05,"longitude":8.3,"elevation":436,"other_names":["Lucerne"],"location":{"type":"Point","coordinates":[8.3,47.05]}}
{"_id":"CH-Neuchâtel-Neuchatel","name":"Neuchatel","country":"CH","province":"Neuchâtel","population":null,"latitude":47,"longitude":6.93,"elevation":430,"other_names":null,"location":{"type":"Point","coordinates":[6.93,47.0]}}
{"_id":"CH-Nidwalden-Stans","name":"Stans","country":"CH","province":"Nidwalden","population":null,"latitude":46.95,"longitude":8.35,"elevation":452,"other_names":null,"location":{"type":"Point","coordinates":[8.35,46.95]}}
{"_id":"CH-Schwyz-Schwyz","name":"Schwyz","country":"CH","province":"Schwyz","population":null,"latitude":47.02,"longitude":8.65,"elevation":516,"other_names":null,"location":{"type":"Point","coordinates":[8.65,47.02]}}
{"_id":"CH-Schaffhausen-Schaffhausen","name":"Schaffhausen","country":"CH","province":"Schaffhausen","population":null,"latitude":47.7,"longitude":8.63,"elevation":403,"other_names":null,"location":{"type":"Point","coordinates":[8.63,47.7]}}
{"_id":"CH-Obwalden-Sarnen","name":"Sarnen","country":"CH","province":"Obwalden","population":null,"latitude":46.88,"longitude":8.23,"elevation":473,"other_names":null,"location":{"type":"Point","coordinates":[8.23,46.88]}}
{"_id":"CH-Sankt Gallen-Sankt Gallen","name":"Sankt Gallen","country":"CH","province":"Sankt Gallen","population":74581,"latitude":47.42,"longitude":9.37,"elevation":675,"other_names":["St. Gallen"],"location":{"type":"Point","coordinates":[9.37,47.42]}}
{"_id":"CH-Solothurn-Solothurn","name":"Solothurn","country":"CH","province":"Solothurn","population":null,"latitude":47.22,"longitude":7.53,"elevation":430,"other_names":null,"location":{"type":"Point","coordinates":[7.53,47.22]}}
{"_id":"CH-Thurgau-Frauenfeld","name":"Frauenfeld","country":"CH","province":"Thurgau","population":null,"latitude":47.55,"longitude":8.9,"elevation":417,"other_names":null,"location":{"type":"Point","coordinates":[8.9,47.55]}}
{"_id":"CH-Ticino-Lugano","name":"Lugano","country":"CH","province":"Ticino","population":62792,"latitude":46,"longitude":8.95,"elevation":273,"other_names":null,"location":{"type":"Point","coordinates":[8.95,46.0]}}
{"_id":"CH-Ticino-Bellinzona","name":"Bellinzona","country":"CH","province":"Ticino","population":null,"latitude":46.2,"longitude":9.02,"elevation":238,"other_names":null,"location":{"type":"Point","coordinates":[9.02,46.2]}}
{"_id":"CH-Uri-Altdorf","name":"Altdorf","country":"CH","province":"Uri","population":null,"latitude":46.87,"longitude":8.63,"elevation":458,"other_names":null,"location":{"type":"Point","coordinates":[8.63,46.87]}}
{"_id":"CH-Valais-Sion","name":"Sion","country":"CH","province":"Valais","population":null,"latitude":46.23,"longitude":7.37,"elevation":500,"other_names":null,"location":{"type":"Point","coordinates":[7.37,46.23]}}
{"_id":"CH-Vaud-Lausanne","name":"Lausanne","country":"CH","province":"Vaud","population":132788,"latitude":46.52,"longitude":6.63,"elevation":495,"other_names":null,"location":{"type":"Point","coordinates":[6.63,46.52]}}
{"_id":"CH-Zug-Zug","name":"Zug","country":"CH","province":"Zug","population":null,"latitude":47.17,"longitude":8.52,"elevation":425,"other_names":null,"location":{"type":"Point","coordinates":[8.52,47.17]}}
{"_id":"CH-Zürich-Zürich","name":"Zürich","country":"CH","province":"Zürich","population":384786,"latitude":47.37,"longitude":8.55,"elevation":408,"other_names":null,"location":{"type":"Point","coordinates":[8.55,47.37]}}
{"_id":"CH-Zürich-Winterthur","name":"Winterthur","country":"CH","province":"Zürich","population":105676,"latitude":47.5,"longitude":8.75,"elevation":439,"other_names":null,"location":{"type":"Point","coordinates":[8.75,47.5]}}
{"_id":"BY-Brest-Brest","name":"Brest","country":"BY","province":"Brest","population":309764,"latitude":52.13,"longitude":23.67,"elevation":280.4,"other_names":null,"location":{"type":"Point","coordinates":[23.67,52.13]}}
{"_id":"BY-Vitebsk-Vitebsk","name":"Vitebsk","country":"BY","province":"Vitebsk","population":347928,"latitude":55.18,"longitude":30.17,"elevation":172,"other_names":null,"location":{"type":"Point","coordinates":[30.17,55.18]}}
{"_id":"BY-Gomel-Gomel","name":"Gomel","country":"BY","province":"Gomel","population":482652,"latitude":52.45,"longitude":30.98,"elevation":138,"other_names":null,"location":{"type":"Point","coordinates":[30.98,52.45]}}
{"_id":"BY-Mogilev-Mogilev","name":"Mogilev","country":"BY","province":"Mogilev","population":358279,"latitude":53.9,"longitude":30.33,"elevation":192,"other_names":null,"location":{"type":"Point","coordinates":[30.33,53.9]}}
{"_id":"BY-Grodno-Grodno","name":"Grodno","country":"BY","province":"Grodno","population":327540,"latitude":53.67,"longitude":23.83,"elevation":137,"other_names":null,"location":{"type":"Point","coordinates":[23.83,53.67]}}
{"_id":"BY-Minsk City-Minsk","name":"Minsk","country":"BY","province":"Minsk City","population":1836808,"latitude":53.9,"longitude":27.57,"elevation":280.6,"other_names":null,"location":{"type":"Point","coordinates":[27.57,53.9]}}
{"_id":"LV-Latvia-Rīga","name":"Rīga","country":"LV","province":"Latvia","population":696618,"latitude":56.95,"longitude":24.11,"elevation":7,"other_names":null,"location":{"type":"Point","coordinates":[24.11,56.95]}}
{"_id":"LT-Lithuania-Klaipeda","name":"Klaipeda","country":"LT","province":"Lithuania","population":158891,"latitude":55.71,"longitude":21.13,"elevation":21,"other_names":null,"location":{"type":"Point","coordinates":[21.13,55.71]}}
{"_id":"LT-Lithuania-Kaunas","name":"Kaunas","country":"LT","province":"Lithuania","population":307498,"latitude":54.9,"longitude":23.89,"elevation":48,"other_names":null,"location":{"type":"Point","coordinates":[23.89,54.9]}}
{"_id":"LT-Lithuania-Vilnius","name":"Vilnius","country":"LT","province":"Lithuania","population":538747,"latitude":54.68,"longitude":25.28,"elevation":112,"other_names":null,"location":{"type":"Point","coordinates":[25.28,54.68]}}
{"_id":"PL-Dolnośląskie-Wrocław","name":"Wrocław","country":"PL","province":"Dolnośląskie","population":631377,"latitude":51.1,"longitude":17.03,"elevation":105,"other_names":null,"location":{"type":"Point","coordinates":[17.03,51.1]}}
{"_id":"BY-Mogilev-Bobruysk","name":"Bobruysk","country":"BY","province":"Mogilev","population":215092,"latitude":53.15,"longitude":29.23,"elevation":157,"other_names":null,"location":{"type":"Point","coordinates":[29.23,53.15]}}
{"_id":"PL-Dolnośląskie-Legnica","name":"Legnica","country":"PL","province":"Dolnośląskie","population":102708,"latitude":51.21,"longitude":16.16,"elevation":113,"other_names":null,"location":{"type":"Point","coordinates":[16.16,51.21]}}
{"_id":"PL-Dolnośląskie-Wałbrzych","name":"Wałbrzych","country":"PL","province":"Dolnośląskie","population":119216,"latitude":50.77,"longitude":16.28,"elevation":350,"other_names":null,"location":{"type":"Point","coordinates":[16.28,50.77]}}
{"_id":"PL-Kujawsko-Pomorskie-Bydgoszcz","name":"Bydgoszcz","country":"PL","province":"Kujawsko-Pomorskie","population":362286,"latitude":53.12,"longitude":18,"elevation":60,"other_names":null,"location":{"type":"Point","coordinates":[18.0,53.12]}}
{"_id":"PL-Kujawsko-Pomorskie-Toruń","name":"Toruń","country":"PL","province":"Kujawsko-Pomorskie","population":204847,"latitude":53.03,"longitude":18.62,"elevation":65,"other_names":null,"location":{"type":"Point","coordinates":[18.62,53.03]}}
{"_id":"PL-Kujawsko-Pomorskie-Grudziadz","name":"Grudziadz","country":"PL","province":"Kujawsko-Pomorskie","population":98726,"latitude":53.49,"longitude":18.78,"elevation":50,"other_names":null,"location":{"type":"Point","coordinates":[18.78,53.49]}}
{"_id":"PL-Kujawsko-Pomorskie-Włocławek","name":"Włocławek","country":"PL","province":"Kujawsko-Pomorskie","population":115982,"latitude":52.66,"longitude":19.07,"elevation":null,"other_names":null,"location":{"type":"Point","coordinates":[19.07,52.66]}}
{"_id":"PL-Lubelskie-Lublin","name":"Lublin","country":"PL","province":"Lubelskie","population":348120,"latitude":51.25,"longitude":22.57,"elevation":168,"other_names":null,"location":{"type":"Point","coordinates":[22.57,51.25]}}
{"_id":"PL-Lubuskie-Zielona Góra","name":"Zielona Góra","country":"PL","province":"Lubuskie","population":119182,"latitude":51.93,"longitude":15.5,"elevation":71,"other_names":null,"location":{"type":"Point","coordinates":[15.5,51.93]}}
{"_id":"PL-Lubuskie-Gorzów Wielkopolski","name":"Gorzów Wielkopolski","country":"PL","province":"Lubuskie","population":124470,"latitude":52.73,"longitude":15.25,"elevation":19,"other_names":null,"location":{"type":"Point","coordinates":[15.25,52.73]}}
{"_id":"PL-Małopolskie-Kraków","name":"Kraków","country":"PL","province":"Małopolskie","population":759131,"latitude":50.06,"longitude":19.94,"elevation":219,"other_names":null,"location":{"type":"Point","coordinates":[19.94,50.06]}}
{"_id":"PL-Łódzkie-Łódź","name":"Łódź","country":"PL","province":"Łódzkie","population":722022,"latitude":51.78,"longitude":19.47,"elevation":162,"other_names":null,"location":{"type":"Point","coordinates":[19.47,51.78]}}
{"_id":"PL-Małopolskie-Tarnów","name":"Tarnów","country":"PL","province":"Małopolskie","population":113188,"latitude":50.01,"longitude":20.99,"elevation":190,"other_names":null,"location":{"type":"Point","coordinates":[20.99,50.01]}}
{"_id":"PL-Mazowieckie-Warszawa","name":"Warszawa","country":"PL","province":"Mazowieckie","population":1711324,"latitude":52.23,"longitude":21.02,"elevation":78,"other_names":["Warsaw"],"location":{"type":"Point","coordinates":[21.02,52.23]}}
{"_id":"PL-Mazowieckie-Płock","name":"Płock","country":"PL","province":"Mazowieckie","population":124048,"latitude":52.55,"longitude":19.7,"elevation":60,"other_names":null,"location":{"type":"Point","coordinates":[19.7,52.55]}}
{"_id":"PL-Mazowieckie-Radom","name":"Radom","country":"PL","province":"Mazowieckie","population":220062,"latitude":51.4,"longitude":21.17,"elevation":130,"other_names":null,"location":{"type":"Point","coordinates":[21.17,51.4]}}
{"_id":"PL-Podlaskie-Białystok","name":"Białystok","country":"PL","province":"Podlaskie","population":294675,"latitude":53.12,"longitude":23.15,"elevation":120,"other_names":null,"location":{"type":"Point","coordinates":[23.15,53.12]}}
{"_id":"PL-Podkarpackie-Rzeszów","name":"Rzeszów","country":"PL","province":"Podkarpackie","population":180776,"latitude":50.03,"longitude":22,"elevation":221,"other_names":null,"location":{"type":"Point","coordinates":[22.0,50.03]}}
{"_id":"PL-Opolskie-Opole","name":"Opole","country":"PL","province":"Opolskie","population":122120,"latitude":50.67,"longitude":17.93,"elevation":176,"other_names":null,"location":{"type":"Point","coordinates":[17.93,50.67]}}
{"_id":"PL-Pomorskie-Gdynia","name":"Gdynia","country":"PL","province":"Pomorskie","population":248574,"latitude":54.5,"longitude":18.53,"elevation":0,"other_names":null,"location":{"type":"Point","coordinates":[18.53,54.5]}}
{"_id":"PL-Pomorskie-Gdańsk","name":"Gdańsk","country":"PL","province":"Pomorskie","population":460354,"latitude":54.37,"longitude":18.63,"elevation":0,"other_names":null,"location":{"type":"Point","coordinates":[18.63,54.37]}}
{"_id":"PL-Śląskie-Katowice","name":"Katowice","country":"PL","province":"Śląskie","population":308269,"latitude":50.25,"longitude":19,"elevation":266,"other_names":null,"location":{"type":"Point","coordinates":[19.0,50.25]}}
{"_id":"PL-Śląskie-Jastrzebie Zdroj","name":"Jastrzebie Zdroj","country":"PL","province":"Śląskie","population":92465,"latitude":49.95,"longitude":18.58,"elevation":259,"other_names":null,"location":{"type":"Point","coordinates":[18.58,49.95]}}
{"_id":"PL-Śląskie-Sosnowiec","name":"Sosnowiec","country":"PL","province":"Śląskie","population":214488,"latitude":50.3,"longitude":19.17,"elevation":250,"other_names":null,"location":{"type":"Point","coordinates":[19.17,50.3]}}
{"_id":"PL-Śląskie-Dąbrowa Górnicza","name":"Dąbrowa Górnicza","country":"PL","province":"Śląskie","population":125063,"latitude":50.32,"longitude":19.27,"elevation":null,"other_names":null,"location":{"type":"Point","coordinates":[19.27,50.32]}}
{"_id":"PL-Śląskie-Bytom","name":"Bytom","country":"PL","province":"Śląskie","population":175377,"latitude":50.38,"longitude":18.9,"elevation":249,"other_names":null,"location":{"type":"Point","coordinates":[18.9,50.38]}}
{"_id":"PL-Śląskie-Zabrze","name":"Zabrze","country":"PL","province":"Śląskie","population":179861,"latitude":50.3,"longitude":18.78,"elevation":null,"other_names":null,"location":{"type":"Point","coordinates":[18.78,50.3]}}
{"_id":"PL-Śląskie-Gliwice","name":"Gliwice","country":"PL","province":"Śląskie","population":186347,"latitude":50.28,"longitude":18.67,"elevation":200,"other_names":null,"location":{"type":"Point","coordinates":[18.67,50.28]}}
{"_id":"PL-Śląskie-Ruda Śląska","name":"Ruda Śląska","country":"PL","province":"Śląskie","population":142672,"latitude":50.27,"longitude":18.7,"elevation":272,"other_names":null,"location":{"type":"Point","coordinates":[18.7,50.27]}}
{"_id":"PL-Śląskie-Tychy","name":"Tychy","country":"PL","province":"Śląskie","population":129087,"latitude":50.13,"longitude":18.98,"elevation":null,"other_names":null,"location":{"type":"Point","coordinates":[18.98,50.13]}}
{"_id":"PL-Śląskie-Chorzów","name":"Chorzów","country":"PL","province":"Śląskie","population":111314,"latitude":50.3,"longitude":18.95,"elevation":null,"other_names":null,"location":{"type":"Point","coordinates":[18.95,50.3]}}
{"_id":"PL-Śląskie-Bielsko-Biała","name":"Bielsko-Biała","country":"PL","province":"Śląskie","population":174291,"latitude":49.82,"longitude":19.04,"elevation":300,"other_names":null,"location":{"type":"Point","coordinates":[19.04,49.82]}}
{"_id":"PL-Śląskie-Rybnik","name":"Rybnik","country":"PL","province":"Śląskie","population":140863,"latitude":50.08,"longitude":18.55,"elevation":210,"other_names":null,"location":{"type":"Point","coordinates":[18.55,50.08]}}
{"_id":"PL-Śląskie-Częstochowa","name":"Częstochowa","country":"PL","province":"Śląskie","population":235156,"latitude":50.8,"longitude":19.12,"elevation":null,"other_names":null,"location":{"type":"Point","coordinates":[19.12,50.8]}}
{"_id":"PL-Warmińsko-Mazurskie-Olsztyn","name":"Olsztyn","country":"PL","province":"Warmińsko-Mazurskie","population":175482,"latitude":53.78,"longitude":20.5,"elevation":90,"other_names":null,"location":{"type":"Point","coordinates":[20.5,53.78]}}
{"_id":"PL-Świętokrzyskie-Kielce","name":"Kielce","country":"PL","province":"Świętokrzyskie","population":201363,"latitude":50.88,"longitude":20.62,"elevation":260,"other_names":null,"location":{"type":"Point","coordinates":[20.62,50.88]}}
{"_id":"PL-Wielkopolskie-Poznań","name":"Poznań","country":"PL","province":"Wielkopolskie","population":552393,"latitude":52.4,"longitude":16.92,"elevation":60,"other_names":null,"location":{"type":"Point","coordinates":[16.92,52.4]}}
{"_id":"PL-Warmińsko-Mazurskie-Elbląg","name":"Elbląg","country":"PL","province":"Warmińsko-Mazurskie","population":123977,"latitude":54.17,"longitude":19.4,"elevation":null,"other_names":null,"location":{"type":"Point","coordinates":[19.4,54.17]}}
{"_id":"PL-Wielkopolskie-Kalisz","name":"Kalisz","country":"PL","province":"Wielkopolskie","population":104867,"latitude":51.76,"longitude":18.08,"elevation":144,"other_names":null,"location":{"type":"Point","coordinates":[18.08,51.76]}}
{"_id":"PL-Zachodniopomorskie-Szczecin","name":"Szczecin","country":"PL","province":"Zachodniopomorskie","population":409211,"latitude":53.43,"longitude":14.55,"elevation":1,"other_names":null,"location":{"type":"Point","coordinates":[14.55,53.43]}}
{"_id":"UA-Cherkas´ka-Cherkasy","name":"Cherkasy","country":"UA","province":"Cherkas´ka","population":286163,"latitude":49.44,"longitude":32.06,"elevation":110,"other_names":null,"location":{"type":"Point","coordinates":[32.06,49.44]}}
{"_id":"PL-Zachodniopomorskie-Koszalin","name":"Koszalin","country":"PL","province":"Zachodniopomorskie","population":109183,"latitude":54.18,"longitude":16.18,"elevation":32,"other_names":null,"location":{"type":"Point","coordinates":[16.18,54.18]}}
{"_id":"UA-Chernihivs´ka-Chernihiv","name":"Chernihiv","country":"UA","province":"Chernihivs´ka","population":296723,"latitude":51.5,"longitude":31.3,"elevation":136,"other_names":null,"location":{"type":"Point","coordinates":[31.3,51.5]}}
{"_id":"UA-Chernivets´ka-Chernivtsi","name":"Chernivtsi","country":"UA","province":"Chernivets´ka","population":255929,"latitude":48.3,"longitude":25.93,"elevation":248,"other_names":null,"location":{"type":"Point","coordinates":[25.93,48.3]}}
{"_id":"UA-Dnipropetrovs´ka-Dnipropetrovs´k","name":"Dnipropetrovs´k","country":"UA","province":"Dnipropetrovs´ka","population":999577,"latitude":48.45,"longitude":34.98,"elevation":155,"other_names":["Dnipro"],"location":{"type":"Point","coordinates":[34.98,48.45]}}
{"_id":"UA-Dnipropetrovs´ka-Kryvyi Rih","name":"Kryvyi Rih","country":"UA","province":"Dnipropetrovs´ka","population":660203,"latitude":47.92,"longitude":33.25,"elevation":84,"other_names":null,"location":{"type":"Point","coordinates":[33.25,47.92]}}
